uf,cidade,lat,lon
AC,ACRELÂNDIA,-10.0759167,-67.0526898
AC,ASSIS BRASIL,-10.9409203,-69.5672108
AC,BRASILÉIA,-11.0010413,-68.7487894
AC,BUJARI,-9.8309656,-67.9520886
AC,CAPIXABA,-10.5741345,-67.6759719
AC,CRUZEIRO DO SUL,-7.6307956,-72.6703869
AC,EPITACIOLÂNDIA,-11.0289439,-68.7411519
AC,FEIJÓ,-8.1648652,-70.3539579
AC,JORDÃO,-9.1911406,-71.9481397
AC,MANOEL URBANO,-8.838755,-69.2619465
AC,MARECHAL THAUMATURGO,-8.9479792,-72.7872614
AC,MÂNCIO LIMA,-7.6145911,-72.905264
AC,PLÁCIDO DE CASTRO,-10.3239154,-67.1824196
AC,PORTO ACRE,-9.5879722,-67.53307
AC,PORTO WALTER,-8.2687722,-72.7444458
AC,RIO BRANCO,-9.9765362,-67.8220778
AC,RODRIGUES ALVES,-7.7380283,-72.6509379
AC,SANTA ROSA DO PURUS,-9.4354872,-70.4926109
AC,SENA MADUREIRA,-9.0659556,-68.6571058
AC,SENADOR GUIOMARD,-9.9765,-67.31913961038961
AC,TARAUACÁ,-8.1602019,-70.7665368
AC,XAPURI,-10.6511174,-68.5017902
AL,ANADIA,-9.6830208,-36.3052699
AL,ARAPIRACA,-9.754866,-36.661471
AL,ATALAIA,-23.1513833,-52.0529697
AL,BARRA DE SANTO ANTÔNIO,-9.4038098,-35.5117693
AL,BARRA DE SÃO MIGUEL,-9.8261357,-35.8837777
AL,BATALHA,-9.6733809,-37.1265481
AL,BELO MONTE,-9.8269944,-37.2787165
AL,BELÉM,-1.45056,-48.4682453
AL,BOCA DA MATA,-9.6452054,-36.2116658
AL,BRANQUINHA,-9.2478057,-36.0152009
AL,CACIMBINHAS,-9.401212,-36.991082
AL,CAJUEIRO,-9.399589,-36.1524309
AL,CAMPESTRE,-8.8481634,-35.5660033
AL,CAMPO ALEGRE,-26.1941684,-49.2657484
AL,CAMPO GRANDE,-9.9725,-36.74791447368421
AL,CANAPI,-9.1173572,-37.6011704
AL,CAPELA,-9.415041,-36.082583
AL,CARNEIROS,-9.4832948,-37.3757121
AL,CHÃ PRETA,-9.255605,-36.298334
AL,COITÉ DO NÓIA,-9.633484,-36.584493
AL,COLÔNIA LEOPOLDINA,-8.9144649,-35.7220255
AL,COQUEIRO SECO,-9.637147,-35.799377
AL,CORURIPE,-10.1249963,-36.1760623
AL,CRAÍBAS,-9.6168038,-36.7684669
AL,DELMIRO GOUVEIA,-9.3841161,-37.997756
AL,DOIS RIACHOS,-9.384645,-37.096502
AL,ESTRELA DE ALAGOAS,-9.3888972,-36.7616833
AL,FEIRA GRANDE,-9.8944239,-36.6793255
AL,FELIZ DESERTO,-10.292494,-36.3028583
AL,FLEXEIRAS,-9.2788679,-35.7235246
AL,GIRAU DO PONCIANO,-9.884041,-36.831592
AL,IBATEGUARA,-8.9737196,-35.9279963
AL,IGACI,-9.537678,-36.637191
AL,IGREJA NOVA,-10.1267244,-36.658151
AL,INHAPI,-9.222095,-37.7480654
AL,JACARÉ DOS HOMENS,-9.6348723,-37.2055752
AL,JACUÍPE,-8.83951,-35.459074
AL,JAPARATINGA,-9.087464,-35.263403
AL,JARAMATAIA,-9.6597307,-37.0015482
AL,JEQUIÁ DA PRAIA,-10.0092595,-36.0232787
AL,JOAQUIM GOMES,-9.1372894,-35.7518862
AL,JUNDIÁ,-8.944022,-35.5546827
AL,JUNQUEIRO,-9.9201549,-36.474737
AL,LAGOA DA CANOA,-9.8294012,-36.7395617
AL,LIMOEIRO DE ANADIA,-9.7389667,-36.5015847
AL,MACEIÓ,-9.6476843,-35.7339264
AL,MAJOR ISIDORO,-9.4945,-37.036265625
AL,MAR VERMELHO,-9.447393,-36.388076
AL,MARAGOGI,-9.0118278,-35.222512
AL,MARAVILHA,-9.230449,-37.352419
AL,MARECHAL DEODORO,-9.709715,-35.896731
AL,MARIBONDO,-9.5808649,-36.3040574
AL,MATA GRANDE,-9.118243,-37.732298
AL,MATRIZ DE CAMARAGIBE,-9.154373,-35.524302
AL,MESSIAS,-9.393843,-35.839182
AL,MINADOR DO NEGRÃO,-9.312358,-36.869553
AL,MONTEIRÓPOLIS,-9.602565,-37.2461716
AL,MURICI,-9.306823,-35.942798
AL,NOVO LINO,-8.941905,-35.664001
AL,OLHO D'ÁGUA DAS FLORES,-9.5318374,-37.2939052
AL,OLHO D'ÁGUA DO CASADO,-9.5020783,-37.8324537
AL,OLHO D'ÁGUA GRANDE,-10.056075,-36.8135254
AL,OLIVENÇA,-9.5190555,-37.1893316
AL,OURO BRANCO,-9.1622698,-37.3582893
AL,PALESTINA,-20.389344,-49.4320384
AL,PALMEIRA DOS ÍNDIOS,-9.4076249,-36.6323616
AL,PARICONHA,-9.2540147,-38.0039241
AL,PARIPUEIRA,-9.463133,-35.551977
AL,PASSO DE CAMARAGIBE,-9.2367833,-35.4901015
AL,PAULO JACINTO,-9.367918,-36.367241
AL,PENEDO,-10.2872341,-36.5819262
AL,PIAÇABUÇU,-10.4066897,-36.433654
AL,PILAR,-9.6016711,-35.9511275
AL,PINDOBA,-9.473822,-36.291829
AL,PIRANHAS,-9.6115579,-37.7616366
AL,PORTO CALVO,-9.051948,-35.398653
AL,PORTO DE PEDRAS,-9.160065,-35.304914
AL,PORTO REAL DO COLÉGIO,-10.186833,-36.8357056
AL,POÇO DAS TRINCHEIRAS,-9.3063206,-37.2855185
AL,PÃO DE AÇÚCAR,-9.7496551,-37.4329891
AL,QUEBRANGULO,-9.3217611,-36.4735837
AL,RIO LARGO,-9.477829,-35.839435
AL,ROTEIRO,-9.8334935,-35.9777132
AL,SANTA LUZIA DO NORTE,-9.6037,-35.823196
AL,SANTANA DO IPANEMA,-9.369989,-37.248018
AL,SANTANA DO MUNDAÚ,-9.171413,-36.217608
AL,SATUBA,-9.569113,-35.822697
AL,SENADOR RUI PALMEIRA,-9.469865,-37.457606
AL,SÃO BRÁS,-10.1258829,-36.898249
AL,SÃO JOSÉ DA LAJE,-9.0093044,-36.056732
AL,SÃO JOSÉ DA TAPERA,-9.5584287,-37.3818893
AL,SÃO LUÍS DO QUITUNDE,-9.3181755,-35.5605097
AL,SÃO MIGUEL DOS CAMPOS,-9.7831115,-36.0967804
AL,SÃO MIGUEL DOS MILAGRES,-9.267217,-35.376312
AL,SÃO SEBASTIÃO,-23.8027866,-45.4070527
AL,TANQUE D'ARCA,-9.5348175,-36.431458
AL,TAQUARANA,-9.64529,-36.492844
AL,TEOTÔNIO VILELA,-9.9062736,-36.3571341
AL,TRAIPU,-9.967583,-37.0015357
AL,UNIÃO DOS PALMARES,-9.1576807,-36.0342251
AL,VIÇOSA,-9.3728032,-36.2432636
AL,ÁGUA BRANCA,-9.2613606,-37.9361053
AM,ALVARÃES,-3.214786,-64.8143124
AM,AMATURÁ,-3.3640509,-68.1994689
AM,ANAMÃ,-3.5797356,-61.4049996
AM,ANORI,-3.7435254,-61.6605203
AM,APUÍ,-7.1940195,-59.8830192
AM,ATALAIA DO NORTE,-4.3658547,-70.1908742
AM,AUTAZES,-3.5833283,-59.1301518
AM,BARCELOS,-0.9729214,-62.925635
AM,BARREIRINHA,-2.798863,-57.067897
AM,BENJAMIN CONSTANT,-4.3782748,-70.0290603
AM,BERURI,-3.9007135,-61.3717319
AM,BOA VISTA DO RAMOS,-2.9716927,-57.5869819
AM,BOCA DO ACRE,-8.7553487,-67.3930873
AM,BORBA,-4.3934778,-59.5947721
AM,CAAPIRANGA,-3.3188884,-61.2096404
AM,CANUTAMA,-6.5330019,-64.3834966
AM,CARAUARI,-4.8766426,-66.8961433
AM,CAREIRO,-3.8185277,-60.3616505
AM,CAREIRO DA VÁRZEA,-3.197024,-59.8259104
AM,COARI,-4.0885957,-63.1431166
AM,CODAJÁS,-3.8413202,-62.0603444
AM,EIRUNEPÉ,-6.6567654,-69.866161
AM,ENVIRA,-7.437889,-70.028143
AM,FONTE BOA,-2.55,-66.91321428571428
AM,GUAJARÁ,-7.5455927,-72.5832769
AM,HUMAITÁ,-7.5099404,-63.0248674
AM,IPIXUNA,-7.047909,-71.693426
AM,IRANDUBA,-3.2758203,-60.1867429
AM,ITACOATIARA,-3.1477898,-58.4461041
AM,ITAMARATI,-6.4385189,-68.2437385
AM,ITAPIRANGA,-2.7461205,-58.025377
AM,JAPURÁ,-1.8808468,-66.9967657
AM,JURUÁ,-3.4746666,-66.0622335
AM,JUTAÍ,-2.7471478,-66.7721255
AM,LÁBREA,-7.2613683,-64.7924505
AM,MANACAPURU,-3.2996768,-60.6213528
AM,MANAQUIRI,-3.4305885,-60.4593078
AM,MANAUS,-3.1316333,-59.9825041
AM,MANICORÉ,-5.804618,-61.289483
AM,MARAÃ,-1.8535579,-65.5897749
AM,MAUÉS,-3.3795798,-57.7196072
AM,NHAMUNDÁ,-2.1921521,-56.7111308
AM,NOVA OLINDA DO NORTE,-3.8926889,-59.0953046
AM,NOVO AIRÃO,-2.6260236,-60.9434406
AM,NOVO ARIPUANÃ,-5.125929,-60.373179
AM,PARINTINS,-2.6344567,-56.7319324
AM,PAUINI,-7.7122214,-66.9998441
AM,PRESIDENTE FIGUEIREDO,-2.0486359,-60.0236658
AM,RIO PRETO DA EVA,-2.6990647,-59.7012494
AM,SANTA ISABEL DO RIO NEGRO,-0.4160389,-65.0153096
AM,SANTO ANTÔNIO DO IÇÁ,-3.095443,-67.946279
AM,SILVES,-2.8372614,-58.2105199
AM,SÃO GABRIEL DA CACHOEIRA,-0.1249715,-67.0813855
AM,SÃO PAULO DE OLIVENÇA,-3.4650627,-68.9468462
AM,SÃO SEBASTIÃO DO UATUMÃ,-2.5719341,-57.8703616
AM,TABATINGA,-4.2327349,-69.9263372
AM,TAPAUÁ,-5.6232283,-63.1879157
AM,TEFÉ,-3.3485276,-64.7102278
AM,TONANTINS,-2.86261,-67.7735482
AM,UARINI,-2.9827061,-65.1578615
AM,URUCARÁ,-2.537073,-57.7590254
AM,URUCURITUBA,-3.1304332,-58.1549157
AP,AMAPÁ,2.0529997,-50.7930003
AP,CALÇOENE,2.4981757,-50.9539503
AP,CUTIAS,0.9708625,-50.8000608
AP,FERREIRA GOMES,0.8580838,-51.1814
AP,ITAUBAL,0.6027524,-50.6998737
AP,LARANJAL DO JARI,-0.8419994,-52.516
AP,MACAPÁ,0.0401529,-51.0569588
AP,MAZAGÃO,-0.1160565,-51.2861759
AP,OIAPOQUE,3.8432128,-51.8350798
AP,PEDRA BRANCA DO AMAPARI,0.7771833,-51.9523218
AP,PORTO GRANDE,0.7028371,-51.4041605
AP,PRACUÚBA,1.7429041,-50.7848832
AP,SANTANA,-0.0307068,-51.1789666
AP,SERRA DO NAVIO,1.637,-52.272340909090914
AP,TARTARUGALZINHO,1.5052391,-50.9123126
AP,VITÓRIA DO JARI,-0.9310733,-52.4241059
BA,ABARÉ,-8.7239913,-39.1139689
BA,ABAÍRA,-13.2503296,-41.6640342
BA,ACAJUTIBA,-11.6609659,-38.0186381
BA,ADUSTINA,-10.5358875,-38.114479
BA,AIQUARA,-14.126918,-39.8887574
BA,ALAGOINHAS,-12.133526,-38.420772
BA,ALCOBAÇA,-17.5215875,-39.1965474
BA,ALMADINA,-14.7025806,-39.6383321
BA,AMARGOSA,-13.0302189,-39.6040692
BA,AMÉLIA RODRIGUES,-12.4015388,-38.7516971
BA,AMÉRICA DOURADA,-11.4515262,-41.4357517
BA,ANAGÉ,-14.6134669,-41.1376308
BA,ANDARAÍ,-12.8059674,-41.3322919
BA,ANDORINHA,-10.3445708,-39.8334411
BA,ANGICAL,-12.005623,-44.7000236
BA,ANGUERA,-12.1509425,-39.2452469
BA,ANTAS,-10.4114649,-38.3308815
BA,ANTÔNIO CARDOSO,-12.4363122,-39.1200307
BA,ANTÔNIO GONÇALVES,-10.5715409,-40.2748824
BA,APORÁ,-11.6599747,-38.0794757
BA,APUAREMA,-13.8517897,-39.7457126
BA,ARACATU,-14.4274236,-41.4604105
BA,ARACI,-11.3356065,-38.9573261
BA,ARAMARI,-12.0907897,-38.4985065
BA,ARATACA,-15.2617424,-39.4122943
BA,ARATUÍPE,-13.077137,-39.0010786
BA,ARAÇÁS,-12.2139176,-38.2026159
BA,AURELINO LEAL,-14.3167137,-39.3256107
BA,BAIANÓPOLIS,-12.3067564,-44.5383591
BA,BAIXA GRANDE,-11.9630941,-40.1657537
BA,BANZAÊ,-10.5827616,-38.6122305
BA,BARRA,-11.0892702,-43.1420453
BA,BARRA DA ESTIVA,-13.6269662,-41.3278287
BA,BARRA DO CHOÇA,-14.8638173,-40.5761637
BA,BARRA DO MENDES,-11.8053298,-42.057037
BA,BARRA DO ROCHA,-14.2090974,-39.6004395
BA,BARREIRAS,-12.1440031,-44.9967406
BA,BARRO ALTO,-11.7618025,-41.9094904
BA,BARRO PRETO,-14.8068289,-39.4727588
BA,BARROCAS,-11.5338665,-39.0802106
BA,BELMONTE,-15.8630837,-38.8792845
BA,BELO CAMPO,-15.0338286,-41.2585109
BA,BIRITINGA,-11.6227908,-38.8066738
BA,BOA NOVA,-14.365907,-40.2063056
BA,BOA VISTA DO TUPIM,-12.6605988,-40.6083594
BA,BOM JESUS DA LAPA,-13.250571,-43.410754
BA,BOM JESUS DA SERRA,-14.37483,-40.5057687
BA,BONINAL,-12.7095183,-41.8299984
BA,BONITO,-11.9665473,-41.2649896
BA,BOQUIRA,-12.8184859,-42.7270883
BA,BOTUPORÃ,-13.3744752,-42.5198469
BA,BREJOLÂNDIA,-12.4843845,-43.9611861
BA,BREJÕES,-13.1033754,-39.7909837
BA,BROTAS DE MACAÚBAS,-12.0019007,-42.6257506
BA,BRUMADO,-14.2950215,-41.659239732941316
BA,BUERAREMA,-14.9571177,-39.3008035
BA,BURITIRAMA,-10.7148421,-43.6362327
BA,CAATIBA,-14.9782759,-40.4092325
BA,CABACEIRAS DO PARAGUAÇU,-12.5377868,-39.1901339
BA,CACHOEIRA,-12.5998256,-38.9665918
BA,CACULÉ,-14.4990734,-42.2233006
BA,CAEM,-11.0909658,-40.4322187
BA,CAETANOS,-14.3387456,-40.9085971
BA,CAETITÉ,-14.0691776,-42.4852428
BA,CAFARNAUM,-11.691399,-41.468823
BA,CAIRU,-13.4860505,-39.0455744
BA,CALDEIRÃO GRANDE,-11.0208483,-40.3041387
BA,CAMACÃ,-15.2495418,-40.2479322
BA,CAMAMU,-13.9438142,-39.1060917
BA,CAMAÇARI,-12.6998188,-38.3260762
BA,CAMPO ALEGRE DE LOURDES,-9.5160326,-43.0101338
BA,CAMPO FORMOSO,-10.51055,-40.320031
BA,CANARANA,-11.6870151,-41.7683675
BA,CANAVIEIRAS,-15.6790128,-38.9449622
BA,CANDEAL,-11.8053441,-39.1206515
BA,CANDEIAS,-12.6693806,-38.5406462
BA,CANDIBA,-14.4125032,-42.8714102
BA,CANSANÇÃO,-10.6671448,-39.498199
BA,CANUDOS,-9.8948692,-39.0266244
BA,CANÁPOLIS,-13.072454,-44.200949
BA,CAPELA DO ALTO ALEGRE,-11.6703944,-39.8362745
BA,CAPIM GROSSO,-11.3793228,-40.0112095
BA,CARAVELAS,-17.7296514,-39.2660082
BA,CARAÍBAS,-14.72496,-41.2566163
BA,CARDEAL DA SILVA,-11.9428154,-37.9494462
BA,CARINHANHA,-14.298524,-43.772349
BA,CASA NOVA,-9.1736775,-40.9734475
BA,CASTRO ALVES,-12.7616941,-39.4281088
BA,CATOLÂNDIA,-12.315088,-44.8616434
BA,CATU,-12.351274,-38.379108
BA,CATURAMA,-13.3309299,-42.2927623
BA,CENTRAL,-11.1338739,-42.1095822
BA,CHORROCHÓ,-8.9774059,-39.0993132
BA,CIPÓ,-11.0990534,-38.5153006
BA,COARACI,-14.6407979,-39.5496765
BA,COCOS,-14.1811222,-44.5382117
BA,CONCEIÇÃO DA FEIRA,-12.5013001,-39.0002166
BA,CONCEIÇÃO DO ALMEIDA,-12.7772763,-39.1692214
BA,CONCEIÇÃO DO COITÉ,-11.5629384,-39.2839543
BA,CONCEIÇÃO DO JACUÍPE,-12.326831,-38.768433
BA,CONDE,-11.8129758,-37.6138705
BA,CONDEÚBA,-14.902227,-41.971829
BA,CONTENDAS DO SINCORÁ,-13.7612283,-41.0421315
BA,CORAÇÃO DE MARIA,-12.2484345,-38.7499274
BA,CORDEIROS,-15.0397219,-41.9314228
BA,CORIBE,-13.828471,-44.45727
BA,CORONEL JOÃO SÁ,-10.2856387,-37.9259435
BA,CORRENTINA,-13.344157,-44.6345066
BA,COTEGIPE,-12.0315387,-44.260401
BA,CRAVOLÂNDIA,-13.3576247,-39.8153954
BA,CRISTÓPOLIS,-12.2349301,-44.4160811
BA,CRISÓPOLIS,-11.5105813,-38.1506278
BA,CRUZ DAS ALMAS,-12.6722649,-39.1053665
BA,CURAÇÁ,-8.9925655,-39.9053169
BA,CÂNDIDO SALES,-15.5037649,-41.2391141
BA,CÍCERO DANTAS,-10.5932265,-38.3834411
BA,DIAS D'ÁVILA,-12.6107233,-38.3028518
BA,DOM BASÍLIO,-13.7589818,-41.7715676
BA,DOM MACEDO COSTA,-12.907806,-39.1905875
BA,DÁRIO MEIRA,-14.4332181,-39.9028712
BA,ELÍSIO MEDRADO,-12.9469824,-39.520431
BA,ENCRUZILHADA,-15.5322113,-40.9072488
BA,ENTRE RIOS,-11.9423743,-38.0836985
BA,ESPLANADA,-11.800614,-37.9453
BA,EUCLIDES DA CUNHA,-10.5060835,-39.0129875
BA,EUNÁPOLIS,-16.3722412,-39.575704
BA,FEIRA DA MATA,-14.2117024,-44.2822314
BA,FEIRA DE SANTANA,-12.2578934,-38.9598047
BA,FILADÉLFIA,-10.7418885,-40.1304175
BA,FIRMINO ALVES,-14.9871017,-39.9242157
BA,FLORESTA AZUL,-14.8602238,-39.6561384
BA,FORMOSA DO RIO PRETO,-11.0414544,-45.1903983
BA,FÁTIMA,-10.5944103,-38.2118405
BA,GANDU,-13.7448138,-39.4844732
BA,GAVIÃO,-11.4714303,-39.7826316
BA,GENTIO DO OURO,-11.4302137,-42.5063185
BA,GLÓRIA,-9.3429057,-38.2552548
BA,GONGOGI,-14.3240248,-39.4665106
BA,GOVERNADOR MANGABEIRA,-12.6038648,-39.0372154
BA,GUAJERU,-14.5464079,-41.9379047
BA,GUANAMBI,-14.223066,-42.779943
BA,GUARATINGA,-16.5802498,-39.7808088
BA,HELIÓPOLIS,-10.6753416,-38.2815308
BA,IAÇU,-12.7672074,-40.2106427
BA,IBIASSUCÊ,-14.2713813,-42.2576112
BA,IBICARAÍ,-14.8625311,-39.5890865
BA,IBICOARA,-13.413079,-41.285121
BA,IBICUÍ,-14.84496,-39.987915
BA,IBIPEBA,-11.6425335,-42.0083068
BA,IBIPITANGA,-12.880435,-42.485568
BA,IBIQUERA,-12.6489164,-40.9323004
BA,IBIRAPITANGA,-14.1615686,-39.369522
BA,IBIRAPUÃ,-17.6873491,-40.109661
BA,IBIRATAIA,-14.0689024,-39.6394008
BA,IBITIARA,-12.6493766,-42.2172476
BA,IBITITÁ,-11.5461033,-41.9781838
BA,IBOTIRAMA,-12.1829519,-43.2181138
BA,ICHU,-11.7495556,-39.1905275
BA,IGAPORÃ,-13.7725318,-42.7168442
BA,IGRAPIÚNA,-13.8227115,-39.1419857
BA,IGUAÍ,-14.752754,-40.089417
BA,ILHÉUS,-14.792599,-39.0453843
BA,INHAMBUPE,-11.7921718,-38.3596957
BA,IPECAETÁ,-12.3158261,-39.306421
BA,IPIAÚ,-14.1318211,-39.7373177
BA,IPIRÁ,-12.1578337,-39.7416605
BA,IPUPIARA,-11.82207,-42.6111388
BA,IRAJUBA,-13.2525307,-40.0842042
BA,IRAMAIA,-13.2937451,-40.9576036
BA,IRAQUARA,-12.2439075,-41.6169181
BA,IRARÁ,-12.0420271,-38.7635638
BA,IRECÊ,-11.3034965,-41.8557929
BA,ITABELA,-16.5743392,-39.561961
BA,ITABERABA,-12.524182,-40.305897
BA,ITABUNA,-14.7935179,-39.274318
BA,ITACARÉ,-14.2781298,-38.9951418
BA,ITAETÉ,-12.9794728,-40.9661685
BA,ITAGI,-14.1627902,-40.0069366
BA,ITAGIBÁ,-14.2891521,-39.8452592
BA,ITAGIMIRIM,-16.0852591,-39.614789
BA,ITAGUAÇU DA BAHIA,-11.0116542,-42.3984029
BA,ITAJU DO COLÔNIA,-15.1415094,-39.7230045
BA,ITAJUÍPE,-14.6744381,-39.3759427
BA,ITAMARAJU,-17.0363103,-39.527994
BA,ITAMARI,-13.778192,-39.682959
BA,ITAMBÉ,-15.2435245,-40.6269506
BA,ITANAGRA,-12.2589718,-38.0388625
BA,ITANHÉM,-17.1665806,-40.3291027
BA,ITAPARICA,-12.8936023,-38.6798141
BA,ITAPEBI,-15.9691891,-39.5320541
BA,ITAPETINGA,-15.2454478,-40.2460053
BA,ITAPICURU,-11.3094471,-38.2184391
BA,ITAPITANGA,-14.4213865,-39.5664662
BA,ITAPÉ,-14.8970856,-39.4246637
BA,ITAQUARA,-13.4464331,-39.9384891
BA,ITARANTIM,-15.6520917,-40.0599067
BA,ITATIM,-12.7073174,-39.6974476
BA,ITIRUÇU,-13.5338389,-40.1502444
BA,ITIÚBA,-10.6917496,-39.8532886
BA,ITORORÓ,-15.1179764,-40.0680738
BA,ITUAÇU,-13.815529,-41.2981722
BA,ITUBERÁ,-13.7360764,-39.1481058
BA,IUIU,-14.4113008,-43.5508641
BA,JABORANDI,-13.6203918,-44.4693394
BA,JACARACI,-14.8457532,-42.4328959
BA,JACOBINA,-11.1851561,-40.5112434
BA,JAGUAQUARA,-13.5294974,-39.9693081
BA,JAGUARARI,-10.2575875,-40.1944363
BA,JAGUARIPE,-13.1147557,-38.8944977
BA,JANDAÍRA,-11.5628009,-37.7820255
BA,JEQUIÉ,-13.8604033,-40.0719627
BA,JEREMOABO,-10.0754917,-38.3476326
BA,JIQUIRIÇÁ,-13.255353,-39.5693044
BA,JITAÚNA,-14.017019,-39.8889976
BA,JOÃO DOURADO,-11.3483643,-41.6626509
BA,JUAZEIRO,-9.4336959,-40.5068201
BA,JUCURUÇU,-16.843428,-40.1596925
BA,JUSSARA,-11.0473921,-41.97167
BA,JUSSARI,-15.1882453,-39.493597
BA,JUSSIAPE,-13.5176017,-41.5919452
BA,LAFAIETE COUTINHO,-13.6557671,-40.2121188
BA,LAGOA REAL,-14.0346296,-42.1421925
BA,LAJE,-13.1809956,-39.4222968
BA,LAJEDINHO,-12.3555395,-40.9033041
BA,LAJEDO DO TABOCAL,-13.4740649,-40.2195324
BA,LAJEDÃO,-17.6125496,-40.3450272
BA,LAMARÃO,-11.7954003,-38.8852303
BA,LAPÃO,-11.3827148,-41.833808
BA,LAURO DE FREITAS,-12.89242,-38.3127691
BA,LENÇÓIS,-12.5634288,-41.3901717
BA,LICÍNIO DE ALMEIDA,-14.684215,-42.509527
BA,LIVRAMENTO DE NOSSA SENHORA,-13.6505468,-41.8412103
BA,LUÍS EDUARDO MAGALHÃES,-12.0869117,-45.7834163
BA,MACAJUBA,-12.1376415,-40.3590055
BA,MACARANI,-15.5610861,-40.4226078
BA,MACAÚBAS,-13.0174846,-42.6882221
BA,MACURURÉ,-9.1717089,-39.0574899
BA,MADRE DE DEUS,-12.7424741,-38.6152913
BA,MAETINGA,-14.6627814,-41.4914419
BA,MAIQUINIQUE,-15.6215177,-40.2650536
BA,MAIRI,-11.7077488,-40.1484881
BA,MALHADA,-14.3379191,-43.7716651
BA,MALHADA DE PEDRAS,-14.3866285,-41.8791848
BA,MANOEL VITORINO,-14.1448395,-40.2439696
BA,MANSIDÃO,-10.7196537,-44.0356021
BA,MARACÁS,-13.4408898,-40.433052
BA,MARAGOGIPE,-12.7766206,-38.9174729
BA,MARAÚ,-14.103022,-39.0144322
BA,MARCIONÍLIO SOUZA,-13.0024332,-40.5317476
BA,MASCOTE,-15.5645474,-39.3026663
BA,MATA DE SÃO JOÃO,-12.530685,-38.300898
BA,MATINA,-13.9098616,-42.8461536
BA,MEDEIROS NETO,-17.3714581,-40.2224736
BA,MIGUEL CALMON,-11.4309436,-40.5976501
BA,MILAGRES,-12.864635,-39.861092
BA,MIRANGABA,-10.9540277,-40.5764152
BA,MIRANTE,-14.2401367,-40.7661915
BA,MONTE SANTO,-10.4382898,-39.3304065
BA,MORPARÁ,-11.5628341,-43.2768414
BA,MORRO DO CHAPÉU,-11.5500293,-41.1570248
BA,MORTUGABA,-15.0232826,-42.3695423
BA,MUCUGÊ,-13.0053,-41.370271
BA,MUCURI,-18.0787487,-39.5470583
BA,MULUNGU DO MORRO,-11.9653564,-41.6408239
BA,MUNDO NOVO,-11.8573859,-40.4731656
BA,MUNIZ FERREIRA,-13.0012551,-39.1102126
BA,MUQUÉM DO SÃO FRANCISCO,-12.0650162,-43.5497188
BA,MURITIBA,-12.624266,-38.9885844
BA,MUTUÍPE,-13.2282298,-39.5060149
BA,NAZARÉ,-13.0345586,-39.0062515
BA,NILO PEÇANHA,-13.6015675,-39.1043356
BA,NORDESTINA,-10.8258183,-39.4297655
BA,NOVA CANAÃ,-14.7936791,-40.1453848
BA,NOVA FÁTIMA,-11.6046105,-39.631054
BA,NOVA IBIÁ,-13.8102566,-39.624783
BA,NOVA ITARANA,-13.0280762,-40.0678848
BA,NOVA REDENÇÃO,-12.817268,-41.0709301
BA,NOVA SOURE,-11.2409332,-38.4774123
BA,NOVA VIÇOSA,-17.8907712,-39.3725471
BA,NOVO HORIZONTE,-12.8085637,-42.1674812
BA,NOVO TRIUNFO,-10.3317495,-38.4191302
BA,OLINDINA,-11.3601309,-38.3269571
BA,OLIVEIRA DOS BREJINHOS,-12.3193308,-42.8914271
BA,OURIÇANGAS,-12.0105291,-38.6259109
BA,OUROLÂNDIA,-10.9686909,-41.0808672
BA,PALMAS DE MONTE ALTO,-14.2636093,-43.1649976
BA,PALMEIRAS,-12.5151234,-41.5746054
BA,PARAMIRIM,-13.4437218,-42.2419768
BA,PARATINGA,-12.692459,-43.1805318
BA,PARIPIRANGA,-10.6828923,-37.8621523
BA,PAU BRASIL,-15.4645802,-39.6518409
BA,PAULO AFONSO,-9.3991006,-38.226711
BA,PEDRO ALEXANDRE,-10.0118695,-37.894739
BA,PEDRÃO,-12.1451302,-38.6466197
BA,PIATÃ,-13.1535638,-41.7743761
BA,PILÃO ARCADO,-10.0004334,-42.4793189
BA,PINDAÍ,-14.4911899,-42.6864686
BA,PINDOBAÇU,-10.7439121,-40.3619457
BA,PINTADAS,-11.813042,-39.9076005
BA,PIRAÍ DO NORTE,-13.7613252,-39.3743055
BA,PIRIPÁ,-14.9419863,-41.7149815
BA,PIRITIBA,-11.7320314,-40.5561536
BA,PLANALTINO,-13.2600789,-40.3692123
BA,PLANALTO,-14.6689214,-40.481006
BA,POJUCA,-12.4260268,-38.3266573
BA,PONTO NOVO,-10.8642828,-40.1328306
BA,PORTO SEGURO,-16.443473,-39.064251
BA,POTIRAGUÁ,-15.5935151,-39.871412
BA,POÇÕES,-14.5274879,-40.3665326
BA,PRADO,-17.336357,-39.222721
BA,PRESIDENTE DUTRA,-11.2959181,-41.9871566
BA,PRESIDENTE JÂNIO QUADROS,-14.685696,-41.6770097
BA,PRESIDENTE TANCREDO NEVES,-13.4556558,-39.4212197
BA,PÉ DE SERRA,-11.8346273,-39.6108675
BA,QUEIMADAS,-10.9807081,-39.6249588
BA,QUIJINGUE,-10.7513728,-39.2075228
BA,QUIXABEIRA,-11.4123294,-40.1264724
BA,RAFAEL JAMBEIRO,-12.3988144,-39.5020289
BA,REMANSO,-9.6179416,-42.0830557
BA,RETIROLÂNDIA,-11.4935873,-39.4245887
BA,RIACHO DE SANTANA,-13.6100985,-42.9355254
BA,RIACHÃO DAS NEVES,-11.7481049,-44.9109851
BA,RIACHÃO DO JACUÍPE,-11.8071084,-39.3816843
BA,RIBEIRA DO AMPARO,-11.0412527,-38.4299461
BA,RIBEIRA DO POMBAL,-10.837299,-38.538152
BA,RIBEIRÃO DO LARGO,-15.4588477,-40.7411582
BA,RIO DE CONTAS,-13.5803333,-41.8112152
BA,RIO DO ANTÔNIO,-14.4072692,-42.0766717
BA,RIO DO PIRES,-13.1252598,-42.2901946
BA,RIO REAL,-11.4869788,-37.9317491
BA,RODELAS,-8.8485589,-38.7663939
BA,RUY BARBOSA,-12.2856669,-40.4958361
BA,SALINAS DA MARGARIDA,-12.8733508,-38.7593794
BA,SALVADOR,-12.9822499,-38.4812772
BA,SANTA BRÍGIDA,-9.7343772,-38.1259256
BA,SANTA BÁRBARA,-11.9543757,-38.9736385
BA,SANTA CRUZ CABRÁLIA,-16.2815556,-39.0239196
BA,SANTA CRUZ DA VITÓRIA,-14.9629349,-39.8105374
BA,SANTA INÊS,-13.2897697,-39.8179701
BA,SANTA LUZIA,-15.4307844,-39.3303259
BA,SANTA MARIA DA VITÓRIA,-13.3901477,-44.2013167
BA,SANTA RITA DE CÁSSIA,-11.0013969,-44.5209684
BA,SANTA TEREZINHA,-10.470375,-50.513986
BA,SANTALUZ,-11.2505314,-39.3746617
BA,SANTANA,-12.979217,-44.05064
BA,SANTANÓPOLIS,-12.0243828,-38.8650365
BA,SANTO AMARO,-12.5519686,-38.7060448
BA,SANTO ANTÔNIO DE JESUS,-12.9689361,-39.260914
BA,SANTO ESTEVÃO,-12.4340621,-39.2556115
BA,SAPEAÇU,-12.7294438,-39.1862263
BA,SAUBARA,-12.7372926,-38.7662996
BA,SAÚDE,-10.9414907,-40.4205842
BA,SEABRA,-12.4172071,-41.772051
BA,SEBASTIÃO LARANJEIRAS,-14.571002,-42.943438
BA,SENHOR DO BONFIM,-10.4602509,-40.189151
BA,SENTO SÉ,-9.7406436,-41.8830056
BA,SERRA DO RAMALHO,-13.5442363,-43.5773151
BA,SERRA DOURADA,-12.758418,-43.9500907
BA,SERRA PRETA,-12.1589615,-39.3320929
BA,SERRINHA,-11.66199,-39.0034021
BA,SERROLÂNDIA,-11.4200011,-40.2974938
BA,SIMÕES FILHO,-12.7867839,-38.4030365
BA,SOBRADINHO,-9.469775,-40.7957473
BA,SOUTO SOARES,-12.0878456,-41.6495346
BA,SÁTIRO DIAS,-11.6033746,-38.581456
BA,SÃO DESIDÉRIO,-12.357196,-44.976881
BA,SÃO DOMINGOS,-11.4636112,-39.526527
BA,SÃO FELIPE,-12.8413439,-39.0942048
BA,SÃO FRANCISCO DO CONDE,-12.628108,-38.6811326
BA,SÃO FÉLIX,-12.6069891,-38.9695574
BA,SÃO FÉLIX DO CORIBE,-13.4041311,-44.1902554
BA,SÃO GABRIEL,-11.2281863,-41.8768254
BA,SÃO GONÇALO DOS CAMPOS,-12.4339991,-38.9488082
BA,SÃO JOSÉ DA VITÓRIA,-15.0790716,-39.3365369
BA,SÃO JOSÉ DO JACUÍPE,-11.5040358,-40.025658
BA,SÃO MIGUEL DAS MATAS,-13.047749,-39.4554608
BA,SÃO SEBASTIÃO DO PASSÉ,-12.5177926,-38.4921566
BA,SÍTIO DO MATO,-13.0843136,-43.4686989
BA,SÍTIO DO QUINTO,-10.3675979,-38.2041664
BA,TABOCAS DO BREJO VELHO,-12.7020751,-44.0091066
BA,TANHAÇU,-14.019662,-41.247271
BA,TANQUE NOVO,-13.5474243,-42.4907587
BA,TANQUINHO,-11.9747061,-39.1057638
BA,TAPEROÁ,-13.537334,-39.0986475
BA,TAPIRAMUTÁ,-11.8447604,-40.7970527
BA,TEIXEIRA DE FREITAS,-17.5376644,-39.7458096
BA,TEODORO SAMPAIO,-12.3053855,-38.6408979
BA,TEOFILÂNDIA,-11.4891658,-38.9997411
BA,TEOLÂNDIA,-13.603575,-39.4927143
BA,TERRA NOVA,-12.4069929,-38.6191596
BA,TREMEDAL,-14.9772387,-41.4110979
BA,TUCANO,-10.963517,-38.785957
BA,UAUÁ,-9.8384079,-39.4793914
BA,UBAITABA,-14.3117771,-39.3226605
BA,UBATÃ,-14.212002,-39.5245924
BA,UBAÍRA,-13.2616682,-39.6612866
BA,UIBAÍ,-11.3349074,-42.1305245
BA,UMBURANAS,-10.728752,-41.3220445
BA,UNA,-15.2724926,-39.246885384186854
BA,URANDI,-14.7680766,-42.6573988
BA,URUÇUCA,-14.5913092,-39.2862094
BA,UTINGA,-12.0781018,-41.090787
BA,VALENTE,-11.4127335,-39.4627304
BA,VALENÇA,-13.3723582,-39.0694243
BA,VARZEDO,-12.9755592,-39.3943596
BA,VERA CRUZ,-12.9608153,-38.6099216
BA,VEREDA,-17.2247466,-40.0856161
BA,VITÓRIA DA CONQUISTA,-14.8567487,-40.8414804
BA,VÁRZEA DA ROÇA,-11.606293,-40.134634
BA,VÁRZEA DO POÇO,-11.5283388,-40.318907
BA,VÁRZEA NOVA,-11.2527934,-40.9456569
BA,WAGNER,-12.2818593,-41.1686734
BA,WANDERLEY,-12.1208986,-43.8905685
BA,WENCESLAU GUIMARÃES,-13.6866356,-39.479122
BA,XIQUE-XIQUE,-10.8217193,-42.7265689
BA,ÁGUA FRIA,-11.8784691,-38.7663706
BA,ÉRICO CARDOSO,-13.419162,-42.1381486
CE,ABAIARA,-7.3607808,-39.0487878
CE,ACARAPE,-4.2237866,-38.7071663
CE,ACARAÚ,-2.8869514,-40.1194713
CE,ACOPIARA,-6.0936464,-39.4543204
CE,AIUABA,-6.5710836,-40.1212278
CE,ALCÂNTARAS,-3.586247,-40.5457641
CE,ALTANEIRA,-6.9980933,-39.7385742
CE,ALTO SANTO,-5.5190371,-38.2719351
CE,AMONTADA,-3.3634586,-39.8284791
CE,ANTONINA DO NORTE,-6.7756797,-39.9873337
CE,APUIARÉS,-3.9460303,-39.4313298
CE,AQUIRAZ,-3.9063117,-38.387504
CE,ARACATI,-4.558259,-37.767894
CE,ARACOIABA,-4.3702577,-38.8084313
CE,ARARENDÁ,-4.7504395,-40.8303611
CE,ARARIPE,-7.212861,-40.1359222
CE,ARATUBA,-4.4195958,-39.0463737
CE,ARNEIROZ,-6.3235099,-40.1603859
CE,ASSARÉ,-6.8746791,-39.8741385
CE,AURORA,-6.9426019,-38.9693765
CE,BAIXIO,-6.7303544,-38.7170095
CE,BANABUIÚ,-5.3046404,-38.919766
CE,BARBALHA,-7.3121067,-39.3036427
CE,BARREIRA,-4.2883361,-38.641094
CE,BARRO,-7.1713587,-38.7742136
CE,BARROQUINHA,-3.0200371,-41.1339229
CE,BATURITÉ,-4.3290203,-38.8821055
CE,BEBERIBE,-4.1810469,-38.1298101
CE,BELA CRUZ,-3.0529129,-40.167582
CE,BOA VIAGEM,-5.1261877,-39.7300055
CE,BREJO SANTO,-7.4909841,-38.9859152
CE,CAMOCIM,-2.9009918,-40.8427389
CE,CAMPOS SALES,-7.0750814,-40.3830178
CE,CANINDÉ,-4.3547946,-39.3108516
CE,CAPISTRANO,-4.4644692,-38.8956734
CE,CARIDADE,-4.2316487,-39.1946515
CE,CARIRIAÇU,-7.0417053,-39.2835527
CE,CARIRÉ,-3.948584,-40.476028
CE,CARIÚS,-6.5348688,-39.4966658
CE,CARNAUBAL,-4.1611842,-40.9412317
CE,CASCAVEL,-4.129666,-38.241178
CE,CATARINA,-6.1340485,-39.8791754
CE,CATUNDA,-4.6494224,-40.2002603
CE,CAUCAIA,-3.7300563,-38.6593082
CE,CEDRO,-6.6065382,-39.0599487
CE,CHAVAL,-3.0339874,-41.2438452
CE,CHOROZINHO,-4.3010895,-38.4976923
CE,CHORÓ,-4.8435726,-39.1393071
CE,COREAÚ,-3.5519794,-40.6528409
CE,CRATEÚS,-5.1782451,-40.6696545
CE,CRATO,-7.2369112,-39.4149236
CE,CROATÁ,-4.4156199,-40.9048081
CE,CRUZ,-2.918128,-40.175981
CE,DEPUTADO IRAPUAN PINHEIRO,-5.9173532,-39.2672104
CE,ERERÉ,-6.0311304,-38.3482173
CE,EUSÉBIO,-3.8889838,-38.4546585
CE,FARIAS BRITO,-6.9272823,-39.5714222
CE,FORQUILHA,-3.799447,-40.263405
CE,FORTALEZA,-3.7304512,-38.5217989
CE,FORTIM,-4.451256,-37.798056
CE,FRECHEIRINHA,-3.755572,-40.818019
CE,GENERAL SAMPAIO,-4.0517636,-39.4509271
CE,GRANJA,-3.1212057,-40.8284124
CE,GRANJEIRO,-6.8889524,-39.2179315
CE,GRAÇA,-4.0453849,-40.7527195
CE,GROAÍRAS,-3.9157768,-40.3855093
CE,GUAIÚBA,-4.0412656,-38.6369079
CE,GUARACIABA DO NORTE,-4.1632924,-40.7495985
CE,GUARAMIRANGA,-4.2615431,-38.9339337
CE,HIDROLÂNDIA,-4.4084745,-40.4065472
CE,HORIZONTE,-4.0964618,-38.4965574
CE,IBARETAMA,-4.8194345,-38.8208476
CE,IBIAPINA,-3.9228792,-40.8890296
CE,IBICUITINGA,-4.9751759,-38.6368754
CE,ICAPUÍ,-4.7158474,-37.3535365
CE,ICÓ,-6.4003992,-38.8575946
CE,IGUATU,-6.361934,-39.2972233
CE,INDEPENDÊNCIA,-5.3958538,-40.3108896
CE,IPAPORANGA,-4.903227,-40.760079
CE,IPAUMIRIM,-6.7883197,-38.7172034
CE,IPU,-4.3239824,-40.7097463
CE,IPUEIRAS,-4.5427141,-40.7168461
CE,IRACEMA,-5.8106219,-38.3028294
CE,IRAUÇUBA,-3.7466828,-39.7840904
CE,ITAITINGA,-3.965768,-38.529763
CE,ITAIÇABA,-4.68054,-37.8239968
CE,ITAPAJÉ,-3.6841324,-39.5851265
CE,ITAPIPOCA,-3.499329,-39.583571
CE,ITAPIÚNA,-4.5654191,-38.9211537
CE,ITAREMA,-2.9224684,-39.9152184
CE,ITATIRA,-4.5305504,-39.6210481
CE,JAGUARETAMA,-5.6092417,-38.7630077
CE,JAGUARIBARA,-5.454494,-38.4679295
CE,JAGUARIBE,-5.8854585,-38.6212957
CE,JAGUARUANA,-4.831508,-37.780997
CE,JARDIM,-7.5838966,-39.279713
CE,JATI,-7.6894344,-39.006074
CE,JIJOCA DE JERICOACOARA,-2.8986278,-40.4506081
CE,JUAZEIRO DO NORTE,-7.2153453,-39.3153336
CE,JUCÁS,-6.5224934,-39.5247183
CE,LAVRAS DA MANGABEIRA,-6.7533331,-38.96538686618186
CE,LIMOEIRO DO NORTE,-5.1455607,-38.0984936
CE,MADALENA,-4.8542961,-39.5766436
CE,MARACANAÚ,-3.8779438,-38.6247697
CE,MARANGUAPE,-3.8922967,-38.6835427
CE,MARCO,-3.1221945,-40.1514585
CE,MARTINÓPOLE,-3.2235114,-40.6958832
CE,MASSAPÊ,-3.5239058,-40.3423107
CE,MAURITI,-7.3870095,-38.7737751
CE,MERUOCA,-3.5390209,-40.4546107
CE,MILAGRES,-7.3106846,-38.9447146
CE,MILHÃ,-5.6834601,-39.1970885
CE,MIRAÍMA,-3.568674,-39.966267
CE,MISSÃO VELHA,-7.248491,-39.1434843
CE,MOMBAÇA,-5.7450899,-39.6293519
CE,MONSENHOR TABOSA,-4.7879512,-40.063949
CE,MORADA NOVA,-5.1076699,-38.3727852
CE,MORAÚJO,-3.4657654,-40.679146
CE,MORRINHOS,-3.2275749,-40.1280783
CE,MUCAMBO,-3.9043285,-40.7454425
CE,MULUNGU,-5.888418,-39.384758
CE,NOVA OLINDA,-7.0934174,-39.6789815
CE,NOVA RUSSAS,-4.7051681,-40.565519
CE,NOVO ORIENTE,-5.5350339,-40.7748902
CE,OCARA,-4.4910653,-38.5964829
CE,ORÓS,-6.2427541,-38.9141151
CE,PACAJUS,-4.171073,-38.464988
CE,PACATUBA,-3.9841,-38.6180383
CE,PACOTI,-4.2253561,-38.9208352
CE,PACUJÁ,-3.9802066,-40.6986251
CE,PALHANO,-4.7449408,-37.9608401
CE,PALMÁCIA,-4.1478012,-38.8460317
CE,PARACURU,-3.41436,-39.030028
CE,PARAIPABA,-3.437987,-39.147868
CE,PARAMBU,-6.2123856,-40.6954982
CE,PARAMOTI,-4.0964461,-39.2390411
CE,PEDRA BRANCA,-5.455674,-39.7166286
CE,PENAFORTE,-7.8288372,-39.0751908
CE,PENTECOSTE,-3.7952282,-39.2713219
CE,PEREIRO,-6.046269,-38.4604192
CE,PINDORETAMA,-4.0265183,-38.3066829
CE,PIQUET CARNEIRO,-5.800251,-39.417017
CE,PIRES FERREIRA,-4.2453181,-40.6437501
CE,PORANGA,-4.7446727,-40.9249168
CE,PORTEIRAS,-7.5341572,-39.1153149
CE,POTENGI,-7.0915205,-40.0268241
CE,POTIRETAMA,-5.7226924,-38.154107
CE,QUITERIANÓPOLIS,-5.8458117,-40.7021812
CE,QUIXADÁ,-4.9706021,-39.0158403
CE,QUIXELÔ,-6.2511238,-39.1995458
CE,QUIXERAMOBIM,-5.1983553,-39.2955573
CE,QUIXERÉ,-5.0742841,-37.9892825
CE,REDENÇÃO,-4.2243979,-38.7278461
CE,RERIUTABA,-4.1418352,-40.5824356
CE,RUSSAS,-4.9354279,-37.9783838
CE,SABOEIRO,-6.539564,-39.9047802
CE,SALITRE,-7.285445,-40.457306
CE,SANTA QUITÉRIA,-4.3336553,-40.1544913
CE,SANTANA DO ACARAÚ,-3.4596492,-40.2090987
CE,SANTANA DO CARIRI,-7.1844749,-39.73683102569594
CE,SENADOR POMPEU,-5.5874386,-39.3730901
CE,SENADOR SÁ,-3.3528,-40.4644057
CE,SOBRAL,-3.6879135,-40.3456372
CE,SOLONÓPOLE,-5.7329092,-39.0098669
CE,SÃO BENEDITO,-4.0479952,-40.8643488
CE,SÃO GONÇALO DO AMARANTE,-3.5929237,-39.03653251900945
CE,SÃO JOÃO DO JAGUARIBE,-5.2719441,-38.271993
CE,SÃO LUÍS DO CURU,-3.672399,-39.2364881
CE,TABULEIRO DO NORTE,-5.2440865,-38.1284605
CE,TAMBORIL,-4.8330075,-40.3210323
CE,TARRAFAS,-6.6819901,-39.7575709
CE,TAUÁ,-6.0031372,-40.2947268
CE,TEJUÇUOCA,-3.9884273,-39.5797395
CE,TIANGUÁ,-3.7307332,-41.0004019
CE,TRAIRI,-3.2777494,-39.2680677
CE,TURURU,-3.5985489,-39.4358101
CE,UBAJARA,-3.8534468,-40.9185642
CE,UMARI,-6.6465102,-38.6995155
CE,UMIRIM,-3.6777738,-39.348725
CE,URUBURETAMA,-3.6235302,-39.5050697
CE,URUOCA,-3.3147591,-40.558957
CE,VARJOTA,-4.1958345,-40.4735305
CE,VIÇOSA DO CEARÁ,-3.5667684,-41.091504
CE,VÁRZEA ALEGRE,-6.7936089,-39.2989333
DF,BRASÍLIA,-15.7934036,-47.8823172
ES,AFONSO CLÁUDIO,-20.077841,-41.12606
ES,ALEGRE,-20.7625787,-41.5318886
ES,ALFREDO CHAVES,-20.624970400000002,-40.75006690147988
ES,ALTO RIO NOVO,-19.0577208,-41.0171518
ES,ANCHIETA,-20.8057672,-40.6454564
ES,APIACÁ,-21.152272,-41.569297
ES,ARACRUZ,-19.8245218,-40.2735025
ES,ATÍLIO VIVÁCQUA,-20.9139369,-41.1947519
ES,BAIXO GUANDU,-19.5138322,-41.0182089
ES,BARRA DE SÃO FRANCISCO,-18.7570902,-40.8916119
ES,BOA ESPERANÇA,-18.5395472,-40.2904088
ES,BOM JESUS DO NORTE,-21.1254776,-41.6711646
ES,BREJETUBA,-20.1465817,-41.2902303
ES,CACHOEIRO DE ITAPEMIRIM,-20.848084,-41.11129
ES,CARIACICA,-20.263202,-40.416549
ES,CASTELO,-20.6034476,-41.2033505
ES,COLATINA,-19.5346732,-40.6287836
ES,CONCEIÇÃO DA BARRA,-18.5841421,-39.7371844
ES,CONCEIÇÃO DO CASTELO,-20.3601311,-41.2470343
ES,DIVINO DE SÃO LOURENÇO,-20.6224575,-41.6853124
ES,DOMINGOS MARTINS,-20.3646483,-40.6585797
ES,DORES DO RIO PRETO,-20.6907113,-41.846385
ES,ECOPORANGA,-18.3720918,-40.8321351
ES,FUNDÃO,-19.9332174,-40.4049674
ES,GOVERNADOR LINDENBERG,-19.25076,-40.462888
ES,GUARAPARI,-20.6718755,-40.4984617
ES,GUAÇUÍ,-20.7726679,-41.6750657
ES,IBATIBA,-20.2342792,-41.5082981
ES,IBIRAÇU,-19.8309496,-40.3686594
ES,IBITIRAMA,-20.5394377,-41.6644451
ES,ICONHA,-20.7935003,-40.8108852
ES,IRUPI,-20.346479,-41.6392581
ES,ITAGUAÇU,-19.8015463,-40.8564646
ES,ITAPEMIRIM,-21.0105534,-40.8351239
ES,ITARANA,-19.8707305,-40.8749826
ES,IÚNA,-20.3427029,-41.5360386
ES,JAGUARÉ,-18.9029244,-40.0712037
ES,JERÔNIMO MONTEIRO,-20.7882214,-41.3921464
ES,JOÃO NEIVA,-19.756346,-40.3848345
ES,LARANJA DA TERRA,-19.8989653,-41.0584617
ES,LINHARES,-19.3816944,-40.0612213
ES,MANTENÓPOLIS,-18.8626177,-41.1224012
ES,MARATAÍZES,-21.0443673,-40.8272204
ES,MARECHAL FLORIANO,-20.4124966,-40.6749858
ES,MARILÂNDIA,-19.4117824,-40.5442916
ES,MIMOSO DO SUL,-21.0628724,-41.3640478
ES,MONTANHA,-18.1256742,-40.366795
ES,MUCURICI,-18.0940112,-40.5184761
ES,MUNIZ FREIRE,-20.4636068,-41.4137007
ES,MUQUI,-20.9509368,-41.3444285
ES,NOVA VENÉCIA,-18.7063456,-40.3969786
ES,PANCAS,-19.2239225,-40.8502555
ES,PEDRO CANÁRIO,-18.2998272,-39.9558844
ES,PINHEIROS,-18.4127047,-40.217534
ES,PIÚMA,-20.8375312,-40.7271589
ES,PONTO BELO,-18.1227076,-40.5392272
ES,PRESIDENTE KENNEDY,-21.1000137,-41.0436113
ES,RIO BANANAL,-19.2614413,-40.3353272
ES,RIO NOVO DO SUL,-20.8641487,-40.9384378
ES,SANTA LEOPOLDINA,-20.0987046,-40.5269434
ES,SANTA MARIA DE JETIBÁ,-20.025296,-40.743931
ES,SANTA TERESA,-19.936339,-40.597945
ES,SERRA,-20.1252961,-40.3064477
ES,SOORETAMA,-19.1918129,-40.1037067
ES,SÃO DOMINGOS DO NORTE,-19.1461276,-40.6214803
ES,SÃO GABRIEL DA PALHA,-19.0148349,-40.539464
ES,SÃO JOSÉ DO CALÇADO,-21.0271161,-41.654069
ES,SÃO MATEUS,-18.7156342,-39.8482555
ES,SÃO ROQUE DO CANAÃ,-19.7385942,-40.6598575
ES,VARGEM ALTA,-20.6742303,-41.010615
ES,VENDA NOVA DO IMIGRANTE,-20.3325787,-41.1295842
ES,VIANA,-20.3914471,-40.4966587
ES,VILA PAVÃO,-18.6191731,-40.6043622
ES,VILA VALÉRIO,-18.9984033,-40.3894342
ES,VILA VELHA,-20.3297037,-40.2920174
ES,VITÓRIA,-20.3200917,-40.3376682
ES,ÁGUA DOCE DO NORTE,-18.54822,-40.979012
ES,ÁGUIA BRANCA,-18.9847265,-40.7391844
GO,ABADIA DE GOIÁS,-16.7572644,-49.4412205
GO,ABADIÂNIA,-16.1940946,-48.7067767
GO,ACREÚNA,-17.3959899,-50.3749031
GO,ADELÂNDIA,-16.4155077,-50.1665834
GO,ALEXÂNIA,-16.0834049,-48.5077803
GO,ALOÂNDIA,-17.7277983,-49.4809338
GO,ALTO HORIZONTE,-14.1954948,-49.3366993
GO,ALTO PARAÍSO DE GOIÁS,-14.1304779,-47.5100161
GO,ALVORADA DO NORTE,-14.483911,-46.4959897
GO,AMARALINA,-13.9236199,-49.2962411
GO,AMERICANO DO BRASIL,-16.2515808,-49.9806104
GO,AMORINÓPOLIS,-16.6211308,-51.0949921
GO,ANHANGÜERA,-18.3338749,-48.220363
GO,ANICUNS,-16.4606451,-49.9572265
GO,ANÁPOLIS,-16.3332828,-48.9525756
GO,APARECIDA DE GOIÂNIA,-16.8226769,-49.2452546
GO,APARECIDA DO RIO DOCE,-18.2980167,-51.1491312
GO,APORÉ,-18.9642193,-51.92804
GO,ARAGARÇAS,-15.8957166,-52.2514538
GO,ARAGOIÂNIA,-16.9146388,-49.4499148
GO,ARAGUAPAZ,-15.0937927,-50.626417
GO,ARAÇU,-16.3561579,-49.6815269
GO,ARENÓPOLIS,-16.3859286,-51.55937
GO,ARUANÃ,-14.9162439,-51.0715692
GO,AURILÂNDIA,-16.6772599,-50.4641231
GO,AVELINÓPOLIS,-16.4672409,-49.7578661
GO,BALIZA,-16.1978119,-52.542789
GO,BARRO ALTO,-14.9696025,-48.9190985
GO,BELA VISTA DE GOIÁS,-16.9692949,-48.9513071
GO,BOM JARDIM DE GOIÁS,-16.2062659,-52.172793
GO,BOM JESUS DE GOIÁS,-18.2174587,-49.739721
GO,BONFINÓPOLIS,-16.6172709,-48.9615701
GO,BONÓPOLIS,-13.649331,-49.8329113
GO,BRAZABRANTES,-16.4291635,-49.3858216
GO,BRITÂNIA,-15.2427599,-51.1602061
GO,BURITI ALEGRE,-18.1377879,-49.0404411
GO,BURITI DE GOIÁS,-16.180644,-50.4287479
GO,BURITINÓPOLIS,-14.4573758,-46.4304568
GO,CABECEIRAS,-15.7995459,-46.9264991
GO,CACHOEIRA ALTA,-18.7618269,-50.9432431
GO,CACHOEIRA DE GOIÁS,-16.6688414,-50.6435997
GO,CACHOEIRA DOURADA,-18.4934204,-49.481062
GO,CAIAPÔNIA,-16.9538779,-51.8090761
GO,CALDAS NOVAS,-17.745,-48.625
GO,CALDAZINHA,-16.7116649,-49.0012601
GO,CAMPESTRE DE GOIÁS,-16.7624179,-49.69497
GO,CAMPINAÇU,-13.7869969,-48.5703841
GO,CAMPINORTE,-14.3104574,-49.1552173
GO,CAMPO ALEGRE DE GOIÁS,-17.6337896,-47.779291
GO,CAMPO LIMPO DE GOIÁS,-16.297101,-49.0894994
GO,CAMPOS BELOS,-13.0349839,-46.768112
GO,CAMPOS VERDES,-14.2709062,-49.65746
GO,CARMO DO RIO VERDE,-15.3549139,-49.707975
GO,CASTELÂNDIA,-18.089062,-50.220798
GO,CATALÃO,-18.1702546,-47.9447082
GO,CATURAÍ,-16.4473559,-49.4919149
GO,CAVALCANTE,-13.7928414,-47.4568521
GO,CAÇU,-18.5637222,-51.1369685
GO,CERES,-15.3103568,-49.6032054
GO,CEZARINA,-16.9718289,-49.775814
GO,CHAPADÃO DO CÉU,-18.3951972,-52.6670783
GO,CIDADE OCIDENTAL,-16.1000758,-47.9445014
GO,COCALZINHO DE GOIÁS,-15.7762854,-48.7730427
GO,COLINAS DO SUL,-14.1555935,-48.0729958
GO,CORUMBAÍBA,-18.1348982,-48.564223
GO,CORUMBÁ DE GOIÁS,-15.9268355,-48.8074659
GO,CRISTALINA,-16.7680599,-47.6133427
GO,CRISTIANÓPOLIS,-17.2010889,-48.7060055
GO,CRIXÁS,-14.5424536,-49.9694813
GO,CROMÍNIA,-17.2891983,-49.3749654
GO,CUMARI,-18.2644369,-48.1511341
GO,CÓRREGO DO OURO,-16.2960629,-50.5512216
GO,DAMIANÓPOLIS,-14.5603809,-46.1780241
GO,DAMOLÂNDIA,-16.2548322,-49.3675277
GO,DAVINÓPOLIS,-18.1536888,-47.5624052
GO,DIORAMA,-16.2359735,-51.2578729
GO,DIVINÓPOLIS DE GOIÁS,-13.2905914,-46.3950744
GO,DOVERLÂNDIA,-16.7210996,-52.3138104
GO,EDEALINA,-17.4239419,-49.6644011
GO,EDÉIA,-17.3407253,-49.9292351
GO,ESTRELA DO NORTE,-13.8687665,-49.0690546
GO,FAINA,-15.4458005,-50.3633826
GO,FAZENDA NOVA,-16.185602,-50.7795674
GO,FIRMINÓPOLIS,-16.5753264,-50.3011286
GO,FLORES DE GOIÁS,-14.4580291,-47.0395396
GO,FORMOSA,-15.5492443,-47.3301212
GO,FORMOSO,-13.6499059,-48.8775481
GO,GAMELEIRA DE GOIÁS,-16.4853739,-48.64541
GO,GOIANDIRA,-18.1355157,-48.087163
GO,GOIANIRA,-16.5001973,-49.4254788
GO,GOIANÁPOLIS,-16.5071038,-49.0213217
GO,GOIANÉSIA,-15.3118269,-49.1162001
GO,GOIATUBA,-18.0154577,-49.3640591
GO,GOIÁS,-15.9408902,-50.1465398
GO,GOIÂNIA,-16.680882,-49.2532691
GO,GOUVELÂNDIA,-18.4425949,-50.1365172
GO,GUAPÓ,-16.8308602,-49.5343721
GO,GUARANI DE GOIÁS,-13.9393794,-46.4781536
GO,GUARAÍTA,-15.6318094,-50.0288807
GO,GUARINOS,-14.7323527,-49.7013939
GO,HEITORAÍ,-15.7189859,-49.826826
GO,HIDROLINA,-14.722224,-49.4694448
GO,HIDROLÂNDIA,-16.9671342,-49.22826
GO,IACIARA,-14.1014906,-46.6343388
GO,INACIOLÂNDIA,-18.4864065,-49.9887805
GO,INDIARA,-17.1387389,-49.9861621
GO,INHUMAS,-16.3610569,-49.500111
GO,IPAMERI,-17.7215439,-48.158118
GO,IPIRANGA DE GOIÁS,-15.1744391,-49.6733825
GO,IPORÁ,-16.4407981,-51.1181188
GO,ISRAELÂNDIA,-16.3165217,-50.9046315
GO,ITABERAÍ,-16.0205509,-49.8060341
GO,ITAGUARI,-15.9180439,-49.6070841
GO,ITAGUARU,-15.7613695,-49.6337242
GO,ITAJÁ,-19.0673379,-51.5495141
GO,ITAPACI,-14.9522349,-49.5511221
GO,ITAPIRAPUÃ,-15.8204999,-50.6094341
GO,ITAPURANGA,-15.5605889,-49.9489571
GO,ITARUMÃ,-18.7645529,-51.348516
GO,ITAUÇU,-16.2035995,-49.6059971
GO,ITUMBIARA,-18.4135862,-49.2172596
GO,IVOLÂNDIA,-16.6050122,-50.792374
GO,JANDAIA,-17.0479665,-50.1475485
GO,JARAGUÁ,-15.7528866,-49.3344033
GO,JATAÍ,-17.8783829,-51.7204241
GO,JAUPACI,-16.1841736,-50.9522616
GO,JESÚPOLIS,-15.9545513,-49.3748004
GO,JOVIÂNIA,-17.8063651,-49.623645
GO,JUSSARA,-15.874813,-50.867431
GO,LAGOA SANTA,-19.1832417,-51.3998026
GO,LEOPOLDO DE BULHÕES,-16.6190479,-48.742755
GO,LUZIÂNIA,-16.2535456,-47.9500276
GO,MAIRIPOTABA,-17.2949694,-49.4960906
GO,MAMBAÍ,-14.4970828,-46.1115108
GO,MARA ROSA,-14.0148159,-49.1776521
GO,MARZAGÃO,-17.980597,-48.6430322
GO,MATRINCHÃ,-15.4357441,-50.749268
GO,MAURILÂNDIA,-17.9718589,-50.3388361
GO,MIMOSO DE GOIÁS,-15.0575453,-48.1602281
GO,MINAÇU,-13.5336413,-48.2184889
GO,MINEIROS,-17.5653879,-52.5536721
GO,MOIPORÁ,-16.5448305,-50.7352929
GO,MONTE ALEGRE DE GOIÁS,-13.2552059,-46.892813
GO,MONTES CLAROS DE GOIÁS,-16.0059459,-51.3978781
GO,MONTIVIDIU,-17.450464,-51.1737162
GO,MONTIVIDIU DO NORTE,-13.3489998,-48.6872789
GO,MORRINHOS,-17.7333689,-49.105908
GO,MORRO AGUDO DE GOIÁS,-15.3184299,-50.0552811
GO,MOSSÂMEDES,-16.1263751,-50.2104393
GO,MOZARLÂNDIA,-14.7457049,-50.5713211
GO,MUNDO NOVO,-13.7729429,-50.281378
GO,MUTUNÓPOLIS,-13.7303379,-49.2745491
GO,NAZÁRIO,-16.5807689,-49.881671
GO,NERÓPOLIS,-16.4069816,-49.219438
GO,NIQUELÂNDIA,-14.4648655,-48.4572244
GO,NOVA AMÉRICA,-15.0205889,-49.8952971
GO,NOVA AURORA,-18.0596519,-48.255172
GO,NOVA CRIXÁS,-14.0968848,-50.3396014
GO,NOVA GLÓRIA,-15.1481798,-49.577239
GO,NOVA IGUAÇU DE GOIÁS,-14.2868289,-49.3871911
GO,NOVA ROMA,-13.7393323,-46.8831607
GO,NOVA VENEZA,-16.3709074,-49.3212061
GO,NOVO BRASIL,-16.0337152,-50.7112124
GO,NOVO GAMA,-16.0496528,-48.0304615
GO,NOVO PLANALTO,-13.2419575,-49.5081599
GO,ORIZONA,-17.0333559,-48.29641
GO,OURO VERDE DE GOIÁS,-16.2181069,-49.194154
GO,OUVIDOR,-18.2296167,-47.8351544
GO,PADRE BERNARDO,-15.1676411,-48.2840561
GO,PALESTINA DE GOIÁS,-16.7456647,-51.530084
GO,PALMEIRAS DE GOIÁS,-16.8102393,-49.9234165
GO,PALMELO,-17.3258189,-48.42603
GO,PALMINÓPOLIS,-16.7884665,-50.1654607
GO,PANAMÁ,-18.1755033,-49.3523852
GO,PARANAIGUARA,-18.9137048,-50.6536307
GO,PARAÚNA,-16.9495937,-50.4473008
GO,PEROLÂNDIA,-17.5269378,-52.0624546
GO,PETROLINA DE GOIÁS,-16.1005783,-49.3359066
GO,PILAR DE GOIÁS,-14.7628082,-49.5797292
GO,PIRACANJUBA,-17.3020379,-49.0170101
GO,PIRANHAS,-16.4252491,-51.8231427
GO,PIRENÓPOLIS,-15.8501619,-48.957317
GO,PIRES DO RIO,-17.3006277,-48.2793037
GO,PLANALTINA,-15.4571536,-47.6089024
GO,PONTALINA,-17.5144331,-49.4449688
GO,PORANGATU,-13.444663,-49.1423569
GO,PORTEIRÃO,-17.8139944,-50.1653411
GO,PORTELÂNDIA,-17.3573086,-52.6777879
GO,POSSE,-14.0835852,-46.3563185
GO,PROFESSOR JAMIL,-17.25316,-49.2442452
GO,QUIRINÓPOLIS,-18.4471859,-50.4546981
GO,RIALMA,-15.3144819,-49.5813991
GO,RIANÁPOLIS,-15.4479209,-49.5102051
GO,RIO QUENTE,-17.8067173,-48.7648226
GO,RIO VERDE,-17.7921255,-50.9191219
GO,RUBIATABA,-15.1629793,-49.8005102
GO,SANCLERLÂNDIA,-16.1993165,-50.309374
GO,SANTA BÁRBARA DE GOIÁS,-16.5779125,-49.6982268
GO,SANTA CRUZ DE GOIÁS,-17.3155119,-48.4809501
GO,SANTA FÉ DE GOIÁS,-15.7705927,-51.1018204
GO,SANTA HELENA DE GOIÁS,-17.8115199,-50.5976641
GO,SANTA ISABEL,-15.3000401,-49.4271365
GO,SANTA RITA DO ARAGUAIA,-17.3269099,-53.2012361
GO,SANTA RITA DO NOVO DESTINO,-15.1350719,-49.1202541
GO,SANTA ROSA DE GOIÁS,-16.0839829,-49.495326
GO,SANTA TEREZA DE GOIÁS,-13.713116,-49.0164361
GO,SANTA TEREZINHA DE GOIÁS,-14.4361002,-49.7092915
GO,SANTO ANTÔNIO DA BARRA,-17.5584989,-50.6345431
GO,SANTO ANTÔNIO DE GOIÁS,-16.4861723,-49.3093885
GO,SANTO ANTÔNIO DO DESCOBERTO,-15.9465415,-48.2616527
GO,SENADOR CANEDO,-16.7013233,-49.0914921
GO,SERRANÓPOLIS,-18.3084565,-51.9569462
GO,SILVÂNIA,-16.6599718,-48.608326
GO,SIMOLÂNDIA,-14.4733312,-46.4832791
GO,SÃO DOMINGOS,-13.3998769,-46.3217961
GO,SÃO FRANCISCO DE GOIÁS,-15.9334279,-49.2608329
GO,SÃO JOÃO D'ALIANÇA,-14.7043453,-47.5206865
GO,SÃO JOÃO DA PARAÚNA,-16.8161447,-50.408197
GO,SÃO LUIZ DO NORTE,-14.8620462,-49.3320827
GO,SÃO LUÍS DE MONTES BELOS,-16.5210639,-50.3726281
GO,SÃO MIGUEL DO ARAGUAIA,-13.2726442,-50.1627219
GO,SÃO MIGUEL DO PASSA QUATRO,-17.0582009,-48.6619811
GO,SÃO PATRÍCIO,-15.3492626,-49.819299
GO,SÃO SIMÃO,-18.9941302,-50.5468215
GO,SÍTIO D'ABADIA,-14.8049934,-46.2544188
GO,TAQUARAL DE GOIÁS,-16.0520569,-49.6038591
GO,TERESINA DE GOIÁS,-13.7789573,-47.266894
GO,TEREZÓPOLIS DE GOIÁS,-16.4837865,-49.0949299
GO,TRINDADE,-16.6549924,-49.4876203
GO,TROMBAS,-13.5078899,-48.74171
GO,TRÊS RANCHOS,-18.3567507,-47.7810678
GO,TURVELÂNDIA,-17.8510524,-50.3051683
GO,TURVÂNIA,-16.6120126,-50.1352075
GO,UIRAPURU,-14.2842502,-49.9195999
GO,URUANA,-15.4998907,-49.6870172
GO,URUAÇU,-14.5244164,-49.1510022
GO,URUTAÍ,-17.4640633,-48.2021071
GO,VALPARAÍSO DE GOIÁS,-16.0686394,-47.9764907
GO,VARJÃO,-17.045397,-49.632599
GO,VIANÓPOLIS,-16.7475869,-48.5131735
GO,VICENTINÓPOLIS,-17.7353689,-49.8040525
GO,VILA BOA,-15.0357754,-47.0561444
GO,VILA PROPÍCIO,-15.4558431,-48.8855024
GO,ÁGUA FRIA DE GOIÁS,-14.9803368,-47.7824312
GO,ÁGUA LIMPA,-18.0755648,-48.7620637
GO,ÁGUAS LINDAS DE GOIÁS,-15.7392283,-48.2793357
MA,AFONSO CUNHA,-4.1326105,-43.3230026
MA,ALCÂNTARA,-2.4084996,-44.4174143
MA,ALDEIAS ALTAS,-4.6291957,-43.4708622
MA,ALTAMIRA DO MARANHÃO,-4.1643006,-45.4674574
MA,ALTO ALEGRE DO MARANHÃO,-4.2055693,-44.4525287
MA,ALTO ALEGRE DO PINDARÉ,-3.6698186,-45.8462153
MA,ALTO PARNAÍBA,-9.112506,-45.9310154
MA,AMAPÁ DO MARANHÃO,-1.6762114,-46.0109669
MA,AMARANTE DO MARANHÃO,-5.56913,-46.747284
MA,ANAJATUBA,-3.26441,-44.6179916
MA,ANAPURUS,-3.6751298,-43.1046001
MA,APICUM-AÇU,-1.5279295,-45.082278
MA,ARAGUANÃ,-2.9508403,-45.6651986
MA,ARAIOSES,-2.890914,-41.904993
MA,ARAME,-4.8858769,-46.0102484
MA,ARARI,-3.4547602,-44.7772723
MA,AXIXÁ,-2.8379465,-44.0561053
MA,AÇAILÂNDIA,-4.9514278,-47.4844564
MA,BACABAL,-4.2318132,-44.781167
MA,BACABEIRA,-2.9786744,-44.3163504
MA,BACURI,-1.728894,-45.1417148
MA,BACURITUBA,-2.7082587,-44.7381309
MA,BALSAS,-7.53214,-46.037163
MA,BARRA DO CORDA,-5.496823,-45.248496
MA,BARREIRINHAS,-2.7541271,-42.8259693
MA,BARÃO DE GRAJAÚ,-6.7542591,-43.0263477
MA,BELA VISTA DO MARANHÃO,-3.7416367,-45.2514192
MA,BELÁGUA,-3.1604031,-43.5085052
MA,BENEDITO LEITE,-7.2173453,-44.5523331
MA,BEQUIMÃO,-2.4495376,-44.7884889
MA,BERNARDO DO MEARIM,-4.6315929,-44.7617508
MA,BOA VISTA DO GURUPI,-1.7981168,-46.3071882
MA,BOM JARDIM,-3.54129,-45.606004
MA,BOM JESUS DAS SELVAS,-4.4878075,-46.8526639
MA,BOM LUGAR,-4.3728019,-45.0366054
MA,BREJO,-3.6804397,-42.7529313
MA,BREJO DE AREIA,-4.3316785,-45.5833334
MA,BURITI,-3.9430944,-42.9244281
MA,BURITI BRAVO,-5.8391884,-43.8367876
MA,BURITICUPU,-4.3227472,-46.4516989
MA,BURITIRANA,-5.5897455,-47.0148915
MA,CACHOEIRA GRANDE,-2.9290492,-44.0573223
MA,CAJAPIÓ,-2.8778715,-44.6746871
MA,CAJARI,-3.3213076,-45.0118757
MA,CAMPESTRE DO MARANHÃO,-6.1729113,-47.3640512
MA,CANTANHEDE,-3.6355005,-44.3778738
MA,CAPINZAL DO NORTE,-4.7304006,-44.3249063
MA,CAROLINA,-7.3313437,-47.4738762
MA,CARUTAPERA,-1.2016638,-46.0205618
MA,CAXIAS,-4.8654201,-43.353664
MA,CEDRAL,-2.000269,-44.528114
MA,CENTRAL DO MARANHÃO,-2.1967253,-44.8290757
MA,CENTRO DO GUILHERME,-2.4511749,-46.039127
MA,CENTRO NOVO DO MARANHÃO,-2.1361032,-46.1248528
MA,CHAPADINHA,-3.7416803,-43.3548006
MA,CIDELÂNDIA,-5.174655,-47.7833531
MA,CODÓ,-4.455623,-43.892354
MA,COELHO NETO,-4.2535154,-43.0149321
MA,COLINAS,-6.0332631,-44.2528542
MA,CONCEIÇÃO DO LAGO-AÇU,-3.8410056,-44.8930565
MA,COROATÁ,-4.1282283,-44.1360269
MA,CURURUPU,-1.824255,-44.872996
MA,CÂNDIDO MENDES,-1.4531117,-45.7273136
MA,DAVINÓPOLIS,-5.5265775,-47.3942217
MA,DOM PEDRO,-5.0398278,-44.4385724
MA,DUQUE BACELAR,-4.1542795,-42.946096
MA,ESPERANTINÓPOLIS,-4.8751875,-44.8801032
MA,ESTREITO,-6.5583016,-47.4432212
MA,FEIRA NOVA DO MARANHÃO,-6.965082,-46.678577
MA,FERNANDO FALCÃO,-6.1512461,-44.9022436
MA,FORMOSA DA SERRA NEGRA,-6.4437601,-46.1905789
MA,FORTALEZA DOS NOGUEIRAS,-6.9643779,-46.1703933
MA,FORTUNA,-5.7331469,-44.154276
MA,GODOFREDO VIANA,-1.4147105,-45.7713182
MA,GONÇALVES DIAS,-5.1532875,-44.2997071
MA,GOVERNADOR ARCHER,-5.023562,-44.2709924
MA,GOVERNADOR EDISON LOBÃO,-5.7456705,-47.363091
MA,GOVERNADOR EUGÊNIO BARROS,-5.3200262,-44.2440583
MA,GOVERNADOR LUIZ ROCHA,-5.470776,-44.0720572
MA,GOVERNADOR NEWTON BELLO,-3.4285914,-45.6714297
MA,GOVERNADOR NUNES FREIRE,-2.1303959,-45.8900498
MA,GRAJAÚ,-5.8154034,-46.1361454
MA,GRAÇA ARANHA,-5.4063519,-44.33271
MA,GUIMARÃES,-2.127551,-44.60199
MA,HUMBERTO DE CAMPOS,-2.598282,-43.464877
MA,ICATU,-2.772065,-44.050061
MA,IGARAPÉ DO MEIO,-3.6397814,-45.1872837
MA,IGARAPÉ GRANDE,-4.6621855,-44.8546609
MA,IMPERATRIZ,-5.5269279,-47.478115
MA,ITAIPAVA DO GRAJAÚ,-5.1421474,-45.7878573
MA,ITAPECURU MIRIM,-3.3973569,-44.3560724
MA,ITINGA DO MARANHÃO,-4.452925,-47.5253727
MA,JATOBÁ,-5.8195391,-44.223188
MA,JENIPAPO DOS VIEIRAS,-5.3679814,-45.6348267
MA,JOSELÂNDIA,-4.9860047,-44.696953
MA,JOÃO LISBOA,-5.44363,-47.406388
MA,JUNCO DO MARANHÃO,-1.8799132,-46.0726685
MA,LAGO DA PEDRA,-4.5627272,-45.1298628
MA,LAGO DO JUNCO,-4.6070838,-45.0530093
MA,LAGO DOS RODRIGUES,-4.6119168,-44.9800419
MA,LAGO VERDE,-4.042525,-44.9364782
MA,LAGOA DO MATO,-6.04865,-43.5273907
MA,LAGOA GRANDE DO MARANHÃO,-4.9914281,-45.3832921
MA,LAJEADO NOVO,-6.1898777,-47.0325965
MA,LIMA CAMPOS,-4.5179809,-44.4671291
MA,LORETO,-7.08562,-45.1397421
MA,LUÍS DOMINGUES,-1.3284412,-45.8975062
MA,MAGALHÃES DE ALMEIDA,-3.392319,-42.211743
MA,MARACAÇUMÉ,-2.049177,-45.958734
MA,MARAJÁ DO SENA,-4.6213998,-45.4539567
MA,MARANHÃOZINHO,-2.2429316,-45.8588977
MA,MATA ROMA,-3.6210147,-43.1156951
MA,MATINHA,-3.102212,-45.032208
MA,MATÕES,-5.5210672,-43.2041534
MA,MATÕES DO NORTE,-3.6268881,-44.5547543
MA,MILAGRES DO MARANHÃO,-3.5815605,-42.6080355
MA,MIRADOR,-6.3703992,-44.3621057
MA,MIRANDA DO NORTE,-3.5658706,-44.5825329
MA,MIRINZAL,-2.0664539,-44.7837348
MA,MONTES ALTOS,-5.8316731,-47.0658003
MA,MONÇÃO,-3.4842036,-45.2515472
MA,MORROS,-2.8652201,-44.0390477
MA,NINA RODRIGUES,-3.467884,-43.91342
MA,NOVA COLINAS,-7.1196897,-46.2610972
MA,NOVA IORQUE,-6.7357067,-44.046151
MA,NOVA OLINDA DO MARANHÃO,-2.8043732,-45.7013215
MA,OLHO D'ÁGUA DAS CUNHÃS,-4.140311,-45.1184685
MA,OLINDA NOVA DO MARANHÃO,-2.9960265,-44.9946822
MA,PALMEIRÂNDIA,-2.6474166,-44.8983779
MA,PARAIBANO,-6.4316929,-43.9877038
MA,PARNARAMA,-5.6823685,-43.0895346
MA,PASSAGEM FRANCA,-6.177451,-43.775511
MA,PASTOS BONS,-6.6013999,-44.0878124
MA,PAULINO NEVES,-2.7227359,-42.5397648
MA,PAULO RAMOS,-4.4491095,-45.2420345
MA,PAÇO DO LUMIAR,-2.5329055,-44.1591965
MA,PEDREIRAS,-4.5687989,-44.6003029
MA,PEDRO DO ROSÁRIO,-2.972719,-45.349316
MA,PENALVA,-3.2881215,-45.1742086
MA,PERI MIRIM,-2.5768477,-44.8556207
MA,PERITORÓ,-4.3723643,-44.3317455
MA,PINDARÉ-MIRIM,-3.6124457,-45.3404235
MA,PINHEIRO,-2.5270459,-45.0866463
MA,PIO XII,-3.8911223,-45.1710284
MA,PIRAPEMAS,-3.7270563,-44.2267429
MA,PORTO FRANCO,-6.34149,-47.396188
MA,PORTO RICO DO MARANHÃO,-1.8597328,-44.5854991
MA,POÇÃO DE PEDRAS,-4.751125,-44.9430514
MA,PRESIDENTE DUTRA,-5.289801,-44.49498
MA,PRESIDENTE JUSCELINO,-2.9262742,-44.0653783
MA,PRESIDENTE MÉDICI,-2.3764612,-45.8207313
MA,PRESIDENTE SARNEY,-2.5907563,-45.3623652
MA,PRESIDENTE VARGAS,-3.4065166,-44.0270508
MA,PRIMEIRA CRUZ,-2.5076725,-43.4385918
MA,RAPOSA,-2.4459454,-44.1193757
MA,RIACHÃO,-7.3642557,-46.6226095
MA,RIBAMAR FIQUENE,-5.930666,-47.388777
MA,ROSÁRIO,-2.9405903,-44.2491088
MA,SAMBAÍBA,-7.134473,-45.351506
MA,SANTA FILOMENA DO MARANHÃO,-5.498196,-44.558146
MA,SANTA HELENA,-2.234387,-45.3002279
MA,SANTA INÊS,-3.6647821,-45.3826869
MA,SANTA LUZIA,-3.9633675,-45.6637956
MA,SANTA LUZIA DO PARUÁ,-2.5440662,-45.775757
MA,SANTA QUITÉRIA DO MARANHÃO,-3.4967557,-42.563878
MA,SANTA RITA,-3.1411146,-44.3270285
MA,SANTANA DO MARANHÃO,-3.1156576,-42.4123538
MA,SANTO AMARO DO MARANHÃO,-2.4987599,-43.253274
MA,SANTO ANTÔNIO DOS LOPES,-4.866134,-44.365278
MA,SATUBINHA,-3.847807,-45.2563709
MA,SENADOR ALEXANDRE COSTA,-5.2597445,-44.0542395
MA,SENADOR LA ROCQUE,-5.4444319,-47.2921001
MA,SERRANO DO MARANHÃO,-1.8535718,-45.1158856
MA,SUCUPIRA DO NORTE,-6.478392,-44.191889
MA,SUCUPIRA DO RIACHÃO,-6.4136163,-43.5453433
MA,SÃO BENEDITO DO RIO PRETO,-3.3306675,-43.5264074
MA,SÃO BENTO,-2.6999089,-44.8331254
MA,SÃO BERNARDO,-3.3650267,-42.4224814
MA,SÃO DOMINGOS DO AZEITÃO,-6.810868,-44.6445713
MA,SÃO DOMINGOS DO MARANHÃO,-5.5799743,-44.3841617
MA,SÃO FRANCISCO DO BREJÃO,-5.124869,-47.3871865
MA,SÃO FRANCISCO DO MARANHÃO,-6.249397,-42.8581192
MA,SÃO FÉLIX DE BALSAS,-7.0834586,-44.8139329
MA,SÃO JOSÉ DE RIBAMAR,-2.5609115,-44.0559509
MA,SÃO JOSÉ DOS BASÍLIOS,-5.0530693,-44.5843209
MA,SÃO JOÃO BATISTA,-2.9582059,-44.7984816
MA,SÃO JOÃO DO CARÚ,-3.5556764,-46.2569799
MA,SÃO JOÃO DO PARAÍSO,-6.4637943,-47.0567941
MA,SÃO JOÃO DO SOTER,-5.1122323,-43.8109269
MA,SÃO JOÃO DOS PATOS,-6.4934,-43.703623
MA,SÃO LUÍS,-2.5295265,-44.2963942
MA,SÃO LUÍS GONZAGA DO MARANHÃO,-4.3727458,-44.6690368
MA,SÃO MATEUS DO MARANHÃO,-4.0289169,-44.4667342
MA,SÃO PEDRO DA ÁGUA BRANCA,-5.083403,-48.4299175
MA,SÃO PEDRO DOS CRENTES,-6.823889,-46.531864
MA,SÃO RAIMUNDO DAS MANGABEIRAS,-7.023608,-45.4769436
MA,SÃO RAIMUNDO DO DOCA BEZERRA,-5.1042784,-45.0847117
MA,SÃO ROBERTO,-5.0188478,-44.9925058
MA,SÃO VICENTE FERRER,-2.8927449,-44.8803633
MA,SÍTIO NOVO,-5.881254,-46.7017184
MA,TASSO FRAGOSO,-8.4729347,-45.7461798
MA,TIMBIRAS,-4.2551056,-43.9386212
MA,TIMON,-5.1023325,-42.8449518
MA,TRIZIDELA DO VALE,-4.5694816,-44.6144214
MA,TUFILÂNDIA,-3.6734127,-45.6357014
MA,TUNTUM,-5.2630885,-44.6448502
MA,TURIAÇU,-1.6710652,-45.3684095
MA,TURILÂNDIA,-2.2226922,-45.3061308
MA,TUTÓIA,-2.761413,-42.275531
MA,URBANO SANTOS,-3.2036233,-43.3929106
MA,VARGEM GRANDE,-3.5443611,-43.9149128
MA,VIANA,-3.2099341,-45.0002456
MA,VILA NOVA DOS MARTÍRIOS,-5.1879409,-48.1377908
MA,VITORINO FREIRE,-4.2885303,-45.2417582
MA,VITÓRIA DO MEARIM,-3.4622876,-44.869715
MA,ZÉ DOCA,-3.270145,-45.655344
MA,ÁGUA DOCE DO MARANHÃO,-2.8402004,-42.1181949
MG,ABADIA DOS DOURADOS,-18.4911191,-47.4063589
MG,ABAETÉ,-19.1566833,-45.4481213
MG,ABRE CAMPO,-20.295421,-42.480131
MG,ACAIACA,-20.3621646,-43.1444162
MG,AGUANIL,-20.9424533,-45.3927152
MG,AIMORÉS,-19.4917754,-41.0615603
MG,AIURUOCA,-21.9759554,-44.6036637
MG,ALAGOA,-22.1697202,-44.6400042
MG,ALBERTINA,-20.66164,-43.784039
MG,ALFENAS,-21.4297405,-45.9479419
MG,ALFREDO VASCONCELOS,-21.145833,-43.776389
MG,ALMENARA,-16.1740678,-40.6904907
MG,ALPERCATA,-18.9803616,-41.9827637
MG,ALPINÓPOLIS,-20.863611,-46.387777
MG,ALTEROSA,-21.249166,-46.143055
MG,ALTO CAPARAÓ,-20.4405661,-41.8683799
MG,ALTO JEQUITIBÁ,-20.423611,-41.966111
MG,ALTO RIO DOCE,-21.0239537,-43.4133507
MG,ALVARENGA,-19.4175,-41.728334
MG,ALVINÓPOLIS,-20.1105199,-43.0601805
MG,ALVORADA DE MINAS,-18.7318587,-43.3641479
MG,ALÉM PARAÍBA,-21.8760576,-42.6810473
MG,AMPARO DO SERRA,-20.5070255,-42.8028462
MG,ANDRADAS,-22.0680484,-46.5688976
MG,ANDRELÂNDIA,-21.739722,-44.308889
MG,ANGELÂNDIA,-17.7253,-42.2728
MG,ANTÔNIO CARLOS,-21.318334,-43.746666
MG,ANTÔNIO DIAS,-19.6525,-42.872778
MG,ANTÔNIO PRADO DE MINAS,-21.0171988,-42.1101106
MG,ARACITABA,-21.3425,-43.378611
MG,ARAGUARI,-18.6511256,-48.1933764
MG,ARANTINA,-21.911667,-44.255833
MG,ARAPONGA,-20.666667,-42.520556
MG,ARAPORÃ,-18.4318188,-49.188313
MG,ARAPUÁ,-19.034444,-46.155556
MG,ARAXÁ,-19.5928536,-46.940241
MG,ARAÇAÍ,-19.200833,-44.2475
MG,ARAÇUAÍ,-16.8484451,-42.0661868
MG,ARAÚJOS,-19.948055,-45.165556
MG,ARCEBURGO,-21.364444,-46.939722
MG,ARCOS,-20.282223,-45.539444
MG,AREADO,-21.3582771,-46.1476688
MG,ARGIRITA,-21.612761,-42.8371922
MG,ARICANDUVA,-17.8678,-42.5569
MG,ARINOS,-15.917223,-46.106111
MG,ASTOLFO DUTRA,-21.3132636,-42.8624102
MG,ATALÉIA,-18.04432,-41.1110524
MG,AUGUSTO DE LIMA,-18.1092963,-44.2651945
MG,AÇUCENA,-19.073056,-42.546666
MG,BAEPENDI,-21.959162,-44.8899249
MG,BALDIM,-19.2913568,-43.9558262
MG,BAMBUÍ,-20.0131996,-45.9777034
MG,BANDEIRA,-15.884444,-40.559167
MG,BANDEIRA DO SUL,-21.728056,-46.385555
MG,BARBACENA,-21.2254524,-43.7735087
MG,BARRA LONGA,-20.2833541,-43.0423516
MG,BARROSO,-21.187137,-43.9771259
MG,BARÃO DE COCAIS,-19.9452437,-43.4870298
MG,BARÃO DE MONTE ALTO,-21.244722,-42.2375
MG,BELA VISTA DE MINAS,-19.8289721,-43.0973688
MG,BELMIRO BRAGA,-21.9486291,-43.413564
MG,BELO HORIZONTE,-19.9227318,-43.9450948
MG,BELO ORIENTE,-19.2232523,-42.4807033
MG,BELO VALE,-20.407778,-44.024167
MG,BERILO,-16.9515764,-42.4643732
MG,BERIZAL,-15.6118785,-41.7417382
MG,BERTÓPOLIS,-17.063333,-40.573889
MG,BETIM,-19.968056,-44.198333
MG,BIAS FORTES,-21.605833,-43.756944
MG,BICAS,-21.7213723,-43.0604327
MG,BIQUINHAS,-18.783611,-45.502222
MG,BOA ESPERANÇA,-21.0901253,-45.5660195
MG,BOCAINA DE MINAS,-22.167778,-44.394722
MG,BOCAIÚVA,-17.1160208,-43.8122678
MG,BOM DESPACHO,-19.7375242,-45.2517288
MG,BOM JARDIM DE MINAS,-21.9476466,-44.1906033
MG,BOM JESUS DA PENHA,-21.0178774,-46.5213848
MG,BOM JESUS DO AMPARO,-19.7045132,-43.4752911
MG,BOM JESUS DO GALHO,-19.8283191,-42.3162256
MG,BOM REPOUSO,-22.4657069,-46.1485376
MG,BOM SUCESSO,-21.0323516,-44.7598082
MG,BONFIM,-17.1095565,-43.8179164
MG,BONFINÓPOLIS DE MINAS,-16.5660011,-45.98645
MG,BONITO DE MINAS,-15.3191266,-44.7544
MG,BORDA DA MATA,-22.274167,-46.165278
MG,BOTELHOS,-21.65,-46.394722
MG,BOTUMIRIM,-16.862778,-43.011111
MG,BRASILÂNDIA DE MINAS,-17.0096409,-46.0087622
MG,BRASÍLIA DE MINAS,-16.2075114,-44.430559
MG,BRAZÓPOLIS,-22.4742842,-45.6165577
MG,BRAÚNAS,-19.055556,-42.716111
MG,BRUMADINHO,-20.143611,-44.2
MG,BRÁS PIRES,-20.8483109,-43.2430524
MG,BUENO BRANDÃO,-22.441976,-46.3517971
MG,BUENÓPOLIS,-17.8756607,-44.1749365
MG,BUGRE,-19.4257687,-42.2556
MG,BURITIS,-15.621389,-46.423889
MG,BURITIZEIRO,-17.3667765,-44.9647781
MG,CABECEIRA GRANDE,-16.0297,-47.0906
MG,CABO VERDE,-21.4743338,-46.3964995
MG,CACHOEIRA DA PRATA,-19.524723,-44.453056
MG,CACHOEIRA DE MINAS,-22.3554043,-45.7796324
MG,CACHOEIRA DE PAJEÚ,-15.965833,-41.496666
MG,CACHOEIRA DOURADA,-18.517136,-49.5002062
MG,CAETANÓPOLIS,-19.2947496,-44.4138386
MG,CAETÉ,-19.897777,-43.670278
MG,CAIANA,-20.695555,-41.924723
MG,CAJURI,-20.7901414,-42.7954489
MG,CALDAS,-21.923611,-46.386111
MG,CAMACHO,-20.625556,-45.156667
MG,CAMANDUCAIA,-22.755278,-46.144444
MG,CAMBUQUIRA,-21.853056,-45.2953619
MG,CAMBUÍ,-22.6122501,-46.0572137
MG,CAMPANHA,-21.8361108,-45.401986
MG,CAMPANÁRIO,-18.2398144,-41.7271768
MG,CAMPESTRE,-21.0029918,-43.7327528
MG,CAMPINA VERDE,-19.535277,-49.486389
MG,CAMPO AZUL,-16.5078525,-44.8133524
MG,CAMPO BELO,-20.8975,-45.277223
MG,CAMPO DO MEIO,-21.1072006,-45.8301735
MG,CAMPO FLORIDO,-19.760833,-48.572223
MG,CAMPOS ALTOS,-19.696389,-46.171389
MG,CAMPOS GERAIS,-21.2333342,-45.7584127
MG,CANA VERDE,-21.021308,-45.1817881
MG,CANAÃ,-20.685555,-42.62
MG,CANDEIAS,-20.7676161,-45.2763777
MG,CANTAGALO,-20.4673592,-43.0356224
MG,CANÁPOLIS,-18.7228793,-49.2016329
MG,CAPARAÓ,-20.5232726,-41.9049984
MG,CAPELA NOVA,-20.9236773,-43.6179487
MG,CAPELINHA,-17.693889,-42.518611
MG,CAPETINGA,-20.6193382,-47.0577418
MG,CAPIM BRANCO,-16.3877865,-46.8970553
MG,CAPINÓPOLIS,-18.682778,-49.569723
MG,CAPITÃO ANDRADE,-19.0675,-41.859722
MG,CAPITÃO ENÉAS,-16.3236018,-43.7154584
MG,CAPITÓLIO,-20.6142437,-46.0487652
MG,CAPUTIRA,-20.171945,-42.270278
MG,CARANAÍBA,-20.8736914,-43.7379458
MG,CARANDAÍ,-20.9523934,-43.8043903
MG,CARANGOLA,-20.733056,-42.029445
MG,CARATINGA,-19.7900887,-42.140533
MG,CARAÍ,-17.1884104,-41.6976554
MG,CARBONITA,-17.5308667,-43.0136207
MG,CAREAÇU,-22.0434124,-45.6995247
MG,CARLOS CHAGAS,-21.744351,-43.3908675
MG,CARMO DA CACHOEIRA,-21.460556,-45.223334
MG,CARMO DA MATA,-20.558334,-44.8703774
MG,CARMO DE MINAS,-22.1216655,-45.1323836
MG,CARMO DO CAJURU,-20.184444,-44.770834
MG,CARMO DO PARANAÍBA,-18.9992327,-46.306916
MG,CARMO DO RIO CLARO,-20.973315,-46.1186754
MG,CARMÉSIA,-19.0854535,-43.1392003
MG,CARMÓPOLIS DE MINAS,-20.541224,-44.6350611
MG,CARNEIRINHO,-19.6975,-50.688055
MG,CARRANCAS,-21.4910462,-44.6436151
MG,CARVALHOS,-22.001667,-44.461667
MG,CARVALHÓPOLIS,-21.7773461,-45.8412117
MG,CASA GRANDE,-20.7937571,-43.928693
MG,CASCALHO RICO,-18.579344,-47.875774
MG,CATAGUASES,-21.387426,-42.6957219
MG,CATAS ALTAS,-20.0748989,-43.4078304
MG,CATAS ALTAS DA NORUEGA,-20.690277,-43.4975
MG,CATUJI,-17.3023659,-41.5166395
MG,CATUTI,-15.3597,-42.9628
MG,CAXAMBU,-21.9755872,-44.9311403
MG,CEDRO DO ABAETÉ,-19.148333,-45.711389
MG,CENTRAL DE MINAS,-18.7612885,-41.3071204
MG,CENTRALINA,-18.5843349,-49.1954739
MG,CHALÉ,-20.0419748,-41.6914563
MG,CHAPADA DO NORTE,-17.0880036,-42.5380774
MG,CHAPADA GAÚCHA,-15.2946253,-45.6284904
MG,CHIADOR,-22.002778,-43.057222
MG,CHÁCARA,-21.6727567,-43.2206851
MG,CIPOTÂNEA,-20.905278,-43.365556
MG,CLARAVAL,-20.4019611,-47.2851534
MG,CLARO DOS POÇÕES,-17.0758235,-44.2117357
MG,CLÁUDIO,-20.4448485,-44.7655217
MG,COIMBRA,-20.8563255,-42.8026943
MG,COLUNA,-18.2326274,-42.8400811
MG,COMENDADOR GOMES,-19.695155,-49.0843408
MG,COMERCINHO,-16.2965093,-41.7930954
MG,CONCEIÇÃO DA APARECIDA,-21.094166,-46.204444
MG,CONCEIÇÃO DA BARRA DE MINAS,-21.128889,-44.472223
MG,CONCEIÇÃO DAS ALAGOAS,-19.9194009,-48.3803414
MG,CONCEIÇÃO DAS PEDRAS,-22.1596572,-45.4550521
MG,CONCEIÇÃO DE IPANEMA,-19.928334,-41.693889
MG,CONCEIÇÃO DO MATO DENTRO,-19.037222,-43.425278
MG,CONCEIÇÃO DO PARÁ,-19.752222,-44.896944
MG,CONCEIÇÃO DO RIO VERDE,-21.881078,-45.0868526
MG,CONCEIÇÃO DOS OUROS,-22.413056,-45.797777
MG,CONFINS,-19.6278749,-43.9912311
MG,CONGONHAL,-22.1532505,-46.0404698
MG,CONGONHAS,-20.5015168,-43.8564586
MG,CONGONHAS DO NORTE,-18.8100392,-43.6783242
MG,CONQUISTA,-19.936944,-47.543055
MG,CONSELHEIRO LAFAIETE,-20.6596107,-43.785743
MG,CONSELHEIRO PENA,-19.1720883,-41.471995
MG,CONSOLAÇÃO,-22.551389,-45.921111
MG,CONTAGEM,-19.9132749,-44.0840953
MG,COQUEIRAL,-21.1898365,-45.4409829
MG,CORAÇÃO DE JESUS,-16.6888187,-44.3577401
MG,CORDISBURGO,-19.125834,-44.320278
MG,CORDISLÂNDIA,-21.792843,-45.7029983
MG,CORINTO,-18.363056,-44.456111
MG,COROACI,-18.6194369,-42.2830239
MG,COROMANDEL,-18.473889,-47.200278
MG,CORONEL FABRICIANO,-19.5200067,-42.6282686
MG,CORONEL MURTA,-16.6165034,-42.1848073
MG,CORONEL PACHECO,-21.5878865,-43.2615975
MG,CORONEL XAVIER CHAVES,-21.0234482,-44.2233108
MG,COUTO DE MAGALHÃES DE MINAS,-18.073056,-43.4718628
MG,CRISTAIS,-20.875834,-45.518611
MG,CRISTIANO OTONI,-20.8324096,-43.8053057
MG,CRISTINA,-22.212222,-45.264167
MG,CRISTÁLIA,-16.7179933,-42.8648107
MG,CRISÓLITA,-17.2391664,-40.9132444
MG,CRUCILÂNDIA,-20.3985647,-44.3429275
MG,CRUZEIRO DA FORTALEZA,-18.9461873,-46.6738005
MG,CRUZÍLIA,-21.838333,-44.808056
MG,CUPARAQUE,-18.9697,-41.0986
MG,CURRAL DE DENTRO,-15.9332656,-41.8568896
MG,CURVELO,-18.7571926,-44.4305993
MG,CÁSSIA,-20.5796525,-46.9262786
MG,CÓRREGO DANTA,-19.823889,-45.904167
MG,CÓRREGO DO BOM JESUS,-22.630556,-46.019723
MG,CÓRREGO FUNDO,-20.4490405,-45.5558238
MG,CÓRREGO NOVO,-19.832223,-42.395833
MG,CÔNEGO MARINHO,-15.2974056,-44.4140513
MG,DATAS,-18.4459187,-43.6584287
MG,DELFIM MOREIRA,-22.5086783,-45.2792398
MG,DELFINÓPOLIS,-20.344749,-46.8546425
MG,DELTA,-19.9769,-47.7711
MG,DESCOBERTO,-21.459444,-42.967223
MG,DESTERRO DE ENTRE RIOS,-20.66,-44.332223
MG,DESTERRO DO MELO,-21.1460033,-43.518329
MG,DIAMANTINA,-18.2440862,-43.6006487
MG,DIOGO DE VASCONCELOS,-20.4868723,-43.1984645
MG,DIONÍSIO,-19.841944,-42.776945
MG,DIVINO,-20.6151497,-42.1474733
MG,DIVINO DAS LARANJEIRAS,-18.7775,-41.479167
MG,DIVINOLÂNDIA DE MINAS,-18.8021453,-42.6153788
MG,DIVINÉSIA,-20.990277,-43.003889
MG,DIVINÓPOLIS,-20.1597921,-44.8739341
MG,DIVISA ALEGRE,-15.7207751,-41.3442809
MG,DIVISA NOVA,-21.5126801,-46.1926626
MG,DIVISÓPOLIS,-15.7216545,-41.0032019
MG,DOM BOSCO,-16.6516044,-46.2677917
MG,DOM CAVATI,-19.3744152,-42.1067301
MG,DOM JOAQUIM,-18.967137,-43.2552141
MG,DOM SILVÉRIO,-20.1631352,-42.9666824
MG,DOM VIÇOSO,-22.2534164,-45.1603324
MG,DONA EUSÉBIA,-21.316667,-42.810556
MG,DORES DE CAMPOS,-21.107222,-44.0225
MG,DORES DE GUANHÃES,-19.0578968,-42.9292569
MG,DORES DO INDAIÁ,-19.4636451,-45.60166
MG,DORES DO TURVO,-20.975278,-43.188889
MG,DORESÓPOLIS,-20.287222,-45.903056
MG,DOURADOQUARA,-18.431062,-47.608269
MG,DURANDÉ,-20.203611,-41.798055
MG,ELÓI MENDES,-21.6094466,-45.5660211
MG,ENGENHEIRO CALDAS,-19.201389,-42.046944
MG,ENGENHEIRO NAVARRO,-17.286622,-43.9515719
MG,ENTRE FOLHAS,-19.6258823,-42.2328975
MG,ENTRE RIOS DE MINAS,-20.670834,-44.065556
MG,ERVÁLIA,-20.8400156,-42.653352
MG,ESMERALDAS,-19.7613111,-44.3145945
MG,ESPERA FELIZ,-20.6494192,-41.9080693
MG,ESPINOSA,-14.9232007,-42.8093337
MG,ESPÍRITO SANTO DO DOURADO,-22.046666,-45.950833
MG,ESTIVA,-22.4638686,-46.0182101
MG,ESTRELA DALVA,-21.741666,-42.460833
MG,ESTRELA DO INDAIÁ,-19.5225,-45.7875
MG,ESTRELA DO SUL,-18.7420499,-47.6900736
MG,EUGENÓPOLIS,-21.0968165,-42.1850985
MG,EWBANK DA CÂMARA,-21.551389,-43.509722
MG,EXTREMA,-22.8549109,-46.3190079
MG,FAMA,-21.4090398,-45.8322579
MG,FARIA LEMOS,-20.8051202,-42.0127393
MG,FELISBURGO,-16.638889,-40.760556
MG,FELIXLÂNDIA,-18.7573983,-44.8991465
MG,FELÍCIO DOS SANTOS,-18.0765035,-43.2471128
MG,FERNANDES TOURINHO,-19.152778,-42.083056
MG,FERROS,-19.234984,-43.019542
MG,FERVEDOURO,-20.7292242,-42.2785942
MG,FLORESTAL,-19.8878705,-44.4314766
MG,FORMIGA,-20.4648425,-45.4266753
MG,FORMOSO,-14.9513078,-46.234247
MG,FORTALEZA DE MINAS,-20.849166,-46.712222
MG,FORTUNA DE MINAS,-19.561662,-44.4451854
MG,FRANCISCO BADARÓ,-16.9917524,-42.350899
MG,FRANCISCO DUMONT,-17.3117541,-44.2322232
MG,FRANCISCO SÁ,-16.4777211,-43.4942587
MG,FRANCISCÓPOLIS,-17.9594883,-42.0081094
MG,FREI GASPAR,-18.0633426,-41.4300673
MG,FREI INOCÊNCIO,-18.563076,-41.9064881
MG,FREI LAGONEGRO,-18.1671176,-42.7656893
MG,FRONTEIRA,-20.286111,-49.202778
MG,FRONTEIRA DOS VALES,-16.8915896,-40.9251061
MG,FRUTA DE LEITE,-16.1169,-42.5278
MG,FRUTAL,-20.0220064,-48.9280076
MG,FUNILÂNDIA,-19.3711961,-44.0599481
MG,GALILÉIA,-19.0008674,-41.5383935
MG,GAMELEIRAS,-15.0833558,-43.1171391
MG,GLAUCILÂNDIA,-16.8497,-43.6972
MG,GOIABEIRA,-18.9804026,-41.224571
MG,GOIANÁ,-21.5375,-43.2014
MG,GONZAGA,-18.8239154,-42.4787064
MG,GONÇALVES,-22.658883,-45.8558405
MG,GOUVEIA,-18.4545728,-43.7415904
MG,GOVERNADOR VALADARES,-18.8539497,-41.9458753
MG,GRUPIARA,-18.492777,-47.7225
MG,GRÃO MOGOL,-16.5634214,-42.8929185
MG,GUANHÃES,-18.7753627,-42.9340634
MG,GUAPÉ,-20.7619447,-45.9174969
MG,GUARACIABA,-20.5718037,-43.0057078
MG,GUARACIAMA,-17.0129899,-43.6696448
MG,GUARANI,-21.35876,-43.0481021
MG,GUARANÉSIA,-21.3024827,-46.7956962
MG,GUARARÁ,-21.731945,-43.037777
MG,GUARDA-MOR,-17.7698233,-47.0986827
MG,GUAXUPÉ,-21.3087615,-46.7190609
MG,GUIDOVAL,-21.1514477,-42.7997151
MG,GUIMARÂNIA,-18.8442251,-46.7925141
MG,GUIRICEMA,-21.0086064,-42.7190891
MG,GURINHATÃ,-19.2114486,-49.7840077
MG,HELIODORA,-22.0675,-45.542222
MG,IAPU,-19.436389,-42.217223
MG,IBERTIOGA,-21.431111,-43.966111
MG,IBIAÍ,-16.861111,-44.913889
MG,IBIRACATU,-15.6666425,-44.1651165
MG,IBIRACI,-20.461944,-47.122223
MG,IBIRITÉ,-20.0214251,-44.0621506
MG,IBITIÚRA DE MINAS,-22.060833,-46.439722
MG,IBITURUNA,-21.1515725,-44.7474347
MG,IBIÁ,-19.4771843,-46.5386956
MG,ICARAÍ DE MINAS,-16.2176592,-44.9023441
MG,IGARAPÉ,-20.068789,-44.3017439
MG,IGARATINGA,-19.955278,-44.7089254
MG,IGUATAMA,-20.174445,-45.711111
MG,IJACI,-21.1700929,-44.9280621
MG,ILICÍNEA,-20.9390196,-45.8263558
MG,IMBÉ DE MINAS,-19.5989453,-41.9694294
MG,INCONFIDENTES,-22.3168866,-46.3279182
MG,INDAIABIRA,-15.4914,-42.1981
MG,INDIANÓPOLIS,-19.0391972,-47.9178436
MG,INGAÍ,-21.400833,-44.917223
MG,INHAPIM,-19.5501834,-42.1209879
MG,INHAÚMA,-19.490277,-44.389166
MG,INIMUTABA,-18.7301732,-44.3623971
MG,IPABA,-19.411389,-42.42
MG,IPANEMA,-19.7999954,-41.7138807
MG,IPATINGA,-19.4777807,-42.5270802
MG,IPIAÇU,-18.6934499,-49.9439567
MG,IPUIÚNA,-22.0993203,-46.1896557
MG,IRAÍ DE MINAS,-18.9865339,-47.4642202
MG,ITABIRA,-19.6186264,-43.2267011
MG,ITABIRINHA,-18.5711894,-41.2339862
MG,ITABIRITO,-20.2519724,-43.8029171
MG,ITACAMBIRA,-17.0671616,-43.3130919
MG,ITACARAMBI,-15.1,-44.092222
MG,ITAGUARA,-20.391389,-44.488055
MG,ITAIPÉ,-17.401944,-41.670278
MG,ITAJUBÁ,-22.4238234,-45.4524156
MG,ITAMARANDIBA,-17.8575,-42.859722
MG,ITAMARATI DE MINAS,-21.415833,-42.817778
MG,ITAMBACURI,-18.0391974,-41.6751876
MG,ITAMBÉ DO MATO DENTRO,-19.4144399,-43.3223059
MG,ITAMOGI,-21.0793213,-47.048612
MG,ITAMONTE,-22.2830726,-44.8695785
MG,ITANHANDU,-22.2957913,-44.9366732
MG,ITANHOMI,-19.171111,-41.864167
MG,ITAOBIM,-16.5614934,-41.502275
MG,ITAPAGIPE,-19.9033884,-49.3666934
MG,ITAPECERICA,-20.472778,-45.125556
MG,ITAPEVA,-22.7071665,-46.23015850595238
MG,ITATIAIUÇU,-20.1975724,-44.4224889
MG,ITAVERAVA,-20.6763122,-43.6098991
MG,ITAÚ DE MINAS,-20.739722,-46.752222
MG,ITAÚNA,-20.075556,-44.576389
MG,ITINGA,-16.6066757,-41.7702077
MG,ITUETA,-19.3962456,-41.2263075
MG,ITUIUTABA,-18.9691887,-49.4639335
MG,ITUMIRIM,-21.3179406,-44.8705728
MG,ITURAMA,-19.7272733,-50.193488
MG,ITUTINGA,-21.297383,-44.6575084
MG,JABOTICATUBAS,-19.521667,-43.745277
MG,JACINTO,-16.1460987,-40.2948032
MG,JACUTINGA,-22.285833,-46.612222
MG,JACUÍ,-21.0169567,-46.7458301
MG,JAGUARAÇU,-19.6471951,-42.7513291
MG,JAMPRUCA,-18.4613981,-41.8092299
MG,JANAÚBA,-15.8019291,-43.309246
MG,JANUÁRIA,-15.4875,-44.361111
MG,JAPARAÍBA,-20.1416346,-45.5032099
MG,JAPONVAR,-15.9980389,-44.2755057
MG,JAÍBA,-15.3373744,-43.6734439
MG,JECEABA,-20.5353816,-43.983346
MG,JENIPAPO DE MINAS,-17.08493,-42.259576
MG,JEQUERI,-20.453056,-42.666111
MG,JEQUITAÍ,-17.2328217,-44.4383463
MG,JEQUITIBÁ,-19.2361583,-44.03063
MG,JEQUITINHONHA,-16.433333,-41.003056
MG,JESUÂNIA,-21.997777,-45.290833
MG,JOANÉSIA,-19.1756282,-42.6815534
MG,JOAQUIM FELÍCIO,-17.7602437,-44.1701635
MG,JOAÍMA,-16.6563139,-41.0234956
MG,JORDÂNIA,-15.899444,-40.178889
MG,JOSENÓPOLIS,-16.5460934,-42.5140963
MG,JOSÉ GONÇALVES DE MINAS,-16.9066539,-42.6074998
MG,JOSÉ RAYDAN,-18.2220672,-42.4991123
MG,JOÃO MONLEVADE,-19.809444,-43.173334
MG,JOÃO PINHEIRO,-17.742777,-46.175278
MG,JUATUBA,-19.954001,-44.3407921
MG,JUIZ DE FORA,-21.7609533,-43.3501129
MG,JURAMENTO,-16.8458291,-43.5867351
MG,JURUAIA,-21.252778,-46.577223
MG,JUVENÍLIA,-14.2660795,-44.1618528
MG,LADAINHA,-17.6265078,-41.7385789
MG,LAGAMAR,-18.1789844,-46.8077038
MG,LAGOA DA PRATA,-20.022778,-45.5440462
MG,LAGOA DOS PATOS,-16.7544395,-43.88381791229015
MG,LAGOA DOURADA,-20.914444,-44.077778
MG,LAGOA FORMOSA,-18.7741896,-46.4082511
MG,LAGOA GRANDE,-18.6002698,-46.5200751
MG,LAGOA SANTA,-19.6357376,-43.8966132
MG,LAJINHA,-20.1520595,-41.6240623
MG,LAMBARI,-21.9754009,-45.3505415
MG,LAMIM,-20.7905386,-43.4733218
MG,LARANJAL,-21.365278,-42.477778
MG,LASSANCE,-17.886944,-44.576667
MG,LAVRAS,-21.2425512,-44.9991978
MG,LEANDRO FERREIRA,-19.7169632,-45.0245003
MG,LEME DO PRADO,-17.0827986,-42.6952729
MG,LEOPOLDINA,-21.5314282,-42.6403534
MG,LIBERDADE,-22.0253009,-44.3208231
MG,LIMA DUARTE,-21.842777,-43.792777
MG,LIMEIRA DO OESTE,-19.5521959,-50.5772673
MG,LONTRA,-15.9034782,-44.3030383
MG,LUISBURGO,-20.4394,-42.1025
MG,LUISLÂNDIA,-16.1150169,-44.5849349
MG,LUMINÁRIAS,-21.5112256,-44.903813
MG,LUZ,-19.7871171,-45.6846736
MG,MACHACALIS,-17.0770336,-40.7187273
MG,MACHADO,-21.6762861,-45.9211696
MG,MADRE DE DEUS DE MINAS,-21.482223,-44.329723
MG,MALACACHETA,-17.843055,-42.077778
MG,MAMONAS,-15.0477099,-42.9499586
MG,MANGA,-14.7528035,-43.9417044
MG,MANHUAÇU,-20.2574434,-42.0340769
MG,MANHUMIRIM,-20.3599141,-41.9554606
MG,MANTENA,-18.7809937,-40.9808279
MG,MAR DE ESPANHA,-21.866945,-43.01
MG,MARAVILHAS,-19.515278,-44.676389
MG,MARIA DA FÉ,-22.3081652,-45.3752771
MG,MARIANA,-20.3781468,-43.4174862
MG,MARILAC,-18.5075,-42.080278
MG,MARIPÁ DE MINAS,-21.6975,-42.959167
MG,MARLIÉRIA,-19.711867,-42.7343059
MG,MARMELÓPOLIS,-22.448889,-45.165278
MG,MARTINHO CAMPOS,-19.331945,-45.236666
MG,MARTINS SOARES,-20.2583778,-41.8761462
MG,MATA VERDE,-15.6882799,-40.7401058
MG,MATERLÂNDIA,-18.473889,-43.06
MG,MATEUS LEME,-19.986666,-44.428056
MG,MATHIAS LOBATO,-18.5760459,-41.9155448
MG,MATIAS BARBOSA,-21.8691643,-43.3180624
MG,MATIAS CARDOSO,-14.8603106,-43.9212441
MG,MATIPÓ,-20.2896695,-42.3426599
MG,MATO VERDE,-16.499274,-44.2279588
MG,MATOZINHOS,-19.5576547,-44.0816035
MG,MATUTINA,-19.221956,-45.9701654
MG,MEDEIROS,-19.9954552,-46.2210801
MG,MEDINA,-16.2270466,-41.4763373
MG,MENDES PIMENTEL,-18.6611641,-41.4020716
MG,MERCÊS,-21.1947265,-43.3407272
MG,MESQUITA,-19.221667,-42.607222
MG,MINAS NOVAS,-17.2175833,-42.5943681
MG,MINDURI,-21.6817218,-44.6036995
MG,MIRABELA,-16.2547215,-44.1639075
MG,MIRADOURO,-20.890277,-42.3425
MG,MIRAVÂNIA,-14.7492867,-44.4108445
MG,MIRAÍ,-21.1957417,-42.6125153
MG,MOEDA,-20.333056,-44.0525
MG,MOEMA,-19.8435409,-45.4106241
MG,MONJOLOS,-18.3242667,-44.1187729
MG,MONSENHOR PAULO,-21.757778,-45.541111
MG,MONTALVÂNIA,-14.4230168,-44.3701782
MG,MONTE ALEGRE DE MINAS,-18.870278,-48.880556
MG,MONTE AZUL,-15.1531999,-42.8711742
MG,MONTE BELO,-21.3225052,-46.3649768
MG,MONTE CARMELO,-18.7260939,-47.4958859
MG,MONTE FORMOSO,-16.8669394,-41.2543539
MG,MONTE SANTO DE MINAS,-21.189722,-46.98
MG,MONTE SIÃO,-22.432778,-46.572778
MG,MONTES CLAROS,-16.7273538,-43.8717676
MG,MONTEZUMA,-15.1715121,-42.4987703
MG,MORADA NOVA DE MINAS,-18.6024892,-45.3513867
MG,MORRO DA GARÇA,-18.5435188,-44.6030199
MG,MORRO DO PILAR,-19.216389,-43.376667
MG,MUNHOZ,-22.613056,-46.360556
MG,MURIAÉ,-21.130556,-42.366389
MG,MUTUM,-19.817223,-41.438333
MG,MUZAMBINHO,-21.3684325,-46.522317
MG,MÁRIO CAMPOS,-20.0511,-44.1858
MG,NACIP RAYDAN,-18.4575634,-42.2496073
MG,NANUQUE,-17.8391113,-40.3537221
MG,NAQUE,-19.2271271,-42.3280185
MG,NATALÂNDIA,-16.5042,-46.4933
MG,NATÉRCIA,-22.12,-45.511389
MG,NAZARENO,-21.2189807,-44.6151354
MG,NEPOMUCENO,-21.232744,-45.2352276
MG,NINHEIRA,-15.3188725,-41.7535577
MG,NOVA BELÉM,-18.4914334,-41.1050052
MG,NOVA ERA,-20.7426124,-42.8807584
MG,NOVA LIMA,-19.9854089,-43.8470691
MG,NOVA MÓDICA,-18.4389859,-41.4973651
MG,NOVA PONTE,-19.1692213,-47.6717642
MG,NOVA PORTEIRINHA,-15.8030559,-43.3011842
MG,NOVA RESENDE,-21.1263862,-46.424537
MG,NOVA SERRANA,-19.875834,-44.984166
MG,NOVA UNIÃO,-19.6901893,-43.580107
MG,NOVO CRUZEIRO,-19.4730937,-42.537897
MG,NOVO ORIENTE DE MINAS,-17.4153913,-41.2190225
MG,NOVORIZONTE,-16.0178,-42.4072
MG,OLARIA,-21.8607194,-43.9370942
MG,OLHOS D'ÁGUA,-17.3988426,-43.5715884
MG,OLIVEIRA,-20.6971953,-44.8273969
MG,OLIVEIRA FORTES,-21.3391156,-43.4577139
MG,OLÍMPIO NORONHA,-22.067778,-45.263889
MG,ONÇA DE PITANGUI,-19.73,-44.807222
MG,ORATÓRIOS,-20.4303,-42.8056
MG,ORIZÂNIA,-20.5057698,-42.2087072
MG,OURO BRANCO,-20.5230256,-43.6917329
MG,OURO FINO,-22.283056,-46.369167
MG,OURO PRETO,-20.385527,-43.5035214
MG,OURO VERDE DE MINAS,-18.0687218,-41.2710619
MG,PADRE CARVALHO,-16.3647,-42.515
MG,PADRE PARAÍSO,-17.0750322,-41.4850334
MG,PAI PEDRO,-15.5311251,-43.0667102
MG,PAINEIRAS,-18.904167,-45.534722
MG,PAINS,-20.3672648,-45.6633353
MG,PAIVA,-21.289441,-43.4175347
MG,PALMA,-19.4364967,-43.9331557
MG,PALMÓPOLIS,-16.7383864,-40.4216514
MG,PAPAGAIOS,-19.4487775,-44.7478694
MG,PARACATU,-17.2174056,-46.8707514
MG,PARAGUAÇU,-21.547222,-45.7375
MG,PARAISÓPOLIS,-22.5541683,-45.7800024
MG,PARAOPEBA,-19.2756823,-44.4034123
MG,PARÁ DE MINAS,-19.8599637,-44.6075313
MG,PASSA QUATRO,-22.3893803,-44.9666039
MG,PASSA TEMPO,-20.650556,-44.495833
MG,PASSA VINTE,-22.209722,-44.234444
MG,PASSABÉM,-19.3521707,-43.1374619
MG,PASSOS,-20.7167803,-46.6156864
MG,PATIS,-16.0806266,-44.0805727
MG,PATOS DE MINAS,-18.6041453,-46.5096698
MG,PATROCÍNIO,-18.9408294,-46.9926624
MG,PATROCÍNIO DO MURIAÉ,-21.153333,-42.214444
MG,PAULA CÂNDIDO,-20.8737735,-42.9862733
MG,PAULISTAS,-18.4268235,-42.8689535
MG,PAVÃO,-17.430699,-40.9991361
MG,PEDRA AZUL,-16.005556,-41.28
MG,PEDRA BONITA,-22.7565159,-45.8426019
MG,PEDRA DO ANTA,-20.5962822,-42.7179792
MG,PEDRA DO INDAIÁ,-20.258333,-45.208611
MG,PEDRA DOURADA,-20.8317801,-42.1554636
MG,PEDRALVA,-22.2428119,-45.4659922
MG,PEDRAS DE MARIA DA CRUZ,-15.605833,-44.391944
MG,PEDRINÓPOLIS,-19.2275,-47.461944
MG,PEDRO LEOPOLDO,-19.617778,-44.043055
MG,PEDRO TEIXEIRA,-21.7056637,-43.7492357
MG,PEQUERI,-21.8369971,-43.1207799
MG,PEQUI,-19.6315163,-44.6597262
MG,PERDIGÃO,-19.953056,-45.084166
MG,PERDIZES,-19.3503361,-47.2938235
MG,PERDÕES,-21.0919737,-45.0903543
MG,PERIQUITO,-19.1559319,-42.2412259
MG,PESCADOR,-18.3563609,-41.5981451
MG,PEÇANHA,-18.5478786,-42.5608947
MG,PIAU,-21.5074738,-43.320587
MG,PIEDADE DE CARATINGA,-19.7601211,-42.0767321
MG,PIEDADE DE PONTE NOVA,-20.2452955,-42.7343995
MG,PIEDADE DO RIO GRANDE,-21.4679371,-44.1939394
MG,PIEDADE DOS GERAIS,-20.471111,-44.226945
MG,PIMENTA,-20.4827995,-45.7985894
MG,PINGO D'ÁGUA,-19.7284768,-42.4098217
MG,PINTÓPOLIS,-16.0572809,-45.1466972
MG,PIRACEMA,-20.5091579,-44.4754464
MG,PIRAJUBA,-19.9090891,-48.701683
MG,PIRANGA,-20.685,-43.3
MG,PIRANGUINHO,-22.4029372,-45.5338952
MG,PIRANGUÇU,-22.5280226,-45.4961066
MG,PIRAPETINGA,-21.656903,-42.345955
MG,PIRAPORA,-17.3493765,-44.9507904
MG,PIRAÚBA,-21.276945,-43.025834
MG,PITANGUI,-19.682223,-44.890555
MG,PIUMHI,-20.4675258,-45.9576125
MG,PLANURA,-20.1368583,-48.7066819
MG,POCRANE,-19.6192747,-41.6365314
MG,POMPÉU,-19.218611,-45.002778
MG,PONTE NOVA,-20.4164353,-42.90878
MG,PONTO CHIQUE,-16.6328913,-45.0637456
MG,PONTO DOS VOLANTES,-16.7532049,-41.5044548
MG,PORTEIRINHA,-15.7420889,-43.0286046
MG,PORTO FIRME,-20.672778,-43.084444
MG,POTÉ,-17.8074949,-41.7892455
MG,POUSO ALEGRE,-22.2343858,-45.9327241
MG,POUSO ALTO,-22.193889,-44.972778
MG,POÇO FUNDO,-21.780834,-45.965
MG,POÇOS DE CALDAS,-21.7900318,-46.5647928
MG,PRADOS,-21.0572943,-44.0788784
MG,PRATA,-19.307222,-48.923889
MG,PRATINHA,-19.7530422,-46.3824103
MG,PRATÁPOLIS,-20.744722,-46.861111
MG,PRESIDENTE BERNARDES,-20.7685467,-43.1877237
MG,PRESIDENTE JUSCELINO,-18.6388028,-44.0604419
MG,PRESIDENTE KUBITSCHEK,-18.614167,-43.561667
MG,PRESIDENTE OLEGÁRIO,-18.415,-46.419723
MG,PRUDENTE DE MORAIS,-19.4825,-44.155556
MG,QUARTEL GERAL,-19.2730674,-45.5570007
MG,QUELUZITO,-20.739722,-43.884444
MG,RAPOSOS,-19.967223,-43.804167
MG,RAUL SOARES,-20.102222,-42.451944
MG,RECREIO,-21.5248205,-42.4689256
MG,REDUTO,-20.2442531,-41.9839974
MG,RESENDE COSTA,-20.921945,-44.237777
MG,RESPLENDOR,-19.3254413,-41.2554622
MG,RESSAQUINHA,-21.063056,-43.762778
MG,RIACHINHO,-16.2212448,-45.9997305
MG,RIACHO DOS MACHADOS,-16.006667,-43.049166
MG,RIBEIRÃO DAS NEVES,-19.7672898,-44.0875436
MG,RIBEIRÃO VERMELHO,-21.1881942,-45.0627632
MG,RIO ACIMA,-20.0875,-43.789166
MG,RIO CASCA,-20.2049635,-42.6556993
MG,RIO DO PRADO,-16.608385,-40.5715827
MG,RIO DOCE,-20.2447972,-42.8970432
MG,RIO ESPERA,-20.9060615,-43.3764832
MG,RIO MANSO,-20.1912278,-44.2756505
MG,RIO NOVO,-21.4753189,-43.1250813
MG,RIO PARANAÍBA,-19.196447,-46.2410263
MG,RIO PARDO DE MINAS,-15.6155637,-42.5461866
MG,RIO PIRACICABA,-19.982333,-43.2322858
MG,RIO POMBA,-21.275,-43.178889
MG,RIO PRETO,-16.535859,-46.696753
MG,RIO VERMELHO,-18.3559733,-43.1445436
MG,RITÁPOLIS,-21.0250052,-44.3186566
MG,ROCHEDO DE MINAS,-21.6295358,-43.0195125
MG,RODEIRO,-21.200278,-42.865
MG,ROMARIA,-18.8823522,-47.5854354
MG,ROSÁRIO DA LIMEIRA,-20.9786,-42.5119
MG,RUBELITA,-16.4067495,-42.2623615
MG,RUBIM,-16.3754471,-40.5382424
MG,SABARÁ,-19.8900372,-43.8107916
MG,SABINÓPOLIS,-18.6656839,-43.0830439
MG,SACRAMENTO,-19.8652854,-47.4402746
MG,SALINAS,-16.1699073,-42.2910368
MG,SALTO DA DIVISA,-15.9984236,-39.9487981
MG,SANTA BÁRBARA,-19.959444,-43.415278
MG,SANTA BÁRBARA DO LESTE,-19.978334,-42.140555
MG,SANTA BÁRBARA DO MONTE VERDE,-21.9578146,-43.7024953
MG,SANTA BÁRBARA DO TUGÚRIO,-21.245833,-43.559444
MG,SANTA CRUZ DE MINAS,-21.1205363,-44.227261
MG,SANTA CRUZ DE SALINAS,-16.0972405,-41.7474332
MG,SANTA CRUZ DO ESCALVADO,-20.2355745,-42.8142315
MG,SANTA EFIGÊNIA DE MINAS,-18.8275746,-42.4400734
MG,SANTA FÉ DE MINAS,-16.689174,-45.4139828
MG,SANTA HELENA DE MINAS,-16.93939185,-40.682575845425404
MG,SANTA JULIANA,-19.308611,-47.525
MG,SANTA LUZIA,-19.7702097,-43.8505291
MG,SANTA MARGARIDA,-20.3817696,-42.2522123
MG,SANTA MARIA DE ITABIRA,-19.4483453,-43.1167817
MG,SANTA MARIA DO SALTO,-16.2493553,-40.1484503
MG,SANTA MARIA DO SUAÇUÍ,-18.1894783,-42.4188445
MG,SANTA RITA DE CALDAS,-22.028889,-46.336944
MG,SANTA RITA DE IBITIPOCA,-21.5625,-43.914722
MG,SANTA RITA DE JACUTINGA,-22.149166,-44.094444
MG,SANTA RITA DE MINAS,-19.8745404,-42.1325122
MG,SANTA RITA DO ITUETO,-19.3576722,-41.3801488
MG,SANTA RITA DO SAPUCAÍ,-22.2486968,-45.7064507
MG,SANTA ROSA DA SERRA,-19.5271986,-45.9659869
MG,SANTA VITÓRIA,-18.8465718,-50.1292823
MG,SANTANA DA VARGEM,-21.2491719,-45.5068185
MG,SANTANA DE CATAGUASES,-21.2871462,-42.5569749
MG,SANTANA DE PIRAPAMA,-19.0075,-44.040833
MG,SANTANA DO DESERTO,-20.198951,-42.8311283
MG,SANTANA DO GARAMBÉU,-21.601389,-44.104167
MG,SANTANA DO JACARÉ,-20.9023708,-45.1274193
MG,SANTANA DO MANHUAÇU,-20.1075,-41.925556
MG,SANTANA DO PARAÍSO,-19.3652914,-42.5494833
MG,SANTANA DO RIACHO,-19.168611,-43.714444
MG,SANTANA DOS MONTES,-20.7875735,-43.6910376
MG,SANTO ANTÔNIO DO AMPARO,-20.9413389,-44.9187397
MG,SANTO ANTÔNIO DO AVENTUREIRO,-21.7579052,-42.815566
MG,SANTO ANTÔNIO DO GRAMA,-20.314444,-42.608611
MG,SANTO ANTÔNIO DO ITAMBÉ,-18.4656416,-43.305993
MG,SANTO ANTÔNIO DO JACINTO,-16.533611,-40.176111
MG,SANTO ANTÔNIO DO MONTE,-20.086944,-45.290555
MG,SANTO ANTÔNIO DO RETIRO,-15.3426419,-42.6223938
MG,SANTO ANTÔNIO DO RIO ABAIXO,-19.2280364,-43.2532149
MG,SANTO HIPÓLITO,-18.2965683,-44.2214292
MG,SANTOS DUMONT,-21.455867,-43.5522107
MG,SAPUCAÍ-MIRIM,-22.7480012,-45.7427651
MG,SARDOÁ,-18.781716,-42.3652762
MG,SARZEDO,-20.0353,-44.1453
MG,SEM PEIXE,-20.1015407,-42.8408301
MG,SENADOR AMARAL,-22.5654695,-46.17769167394954
MG,SENADOR CORTES,-21.8009734,-42.9450985
MG,SENADOR FIRMINO,-20.9169703,-43.1001236
MG,SENADOR JOSÉ BENTO,-22.1641985,-46.1785855
MG,SENADOR MODESTINO GONÇALVES,-17.9496602,-43.2257678
MG,SENHORA DE OLIVEIRA,-20.793889,-43.344166
MG,SENHORA DO PORTO,-18.8905778,-43.0844887
MG,SENHORA DOS REMÉDIOS,-21.028056,-43.582778
MG,SERICITA,-20.4738307,-42.4821683
MG,SERITINGA,-21.9096949,-44.5216061
MG,SERRA AZUL DE MINAS,-18.3622042,-43.1702095
MG,SERRA DA SAUDADE,-19.4404288,-45.7931291
MG,SERRA DO SALITRE,-19.1101839,-46.6809858
MG,SERRA DOS AIMORÉS,-17.6441053,-40.370218
MG,SERRANIA,-21.547906,-46.0404553
MG,SERRANOS,-21.890277,-44.509444
MG,SERRANÓPOLIS DE MINAS,-15.810935,-42.871182
MG,SERRO,-18.604444,-43.379445
MG,SETE LAGOAS,-19.466111,-44.246944
MG,SETUBINHA,-17.6001378,-42.1620269
MG,SILVEIRÂNIA,-21.158611,-43.215556
MG,SILVIANÓPOLIS,-22.029723,-45.835277
MG,SIMONÉSIA,-20.1233838,-42.0024294
MG,SIMÃO PEREIRA,-21.963611,-43.311667
MG,SOBRÁLIA,-19.2345745,-42.0978033
MG,SOLEDADE DE MINAS,-22.0603078,-45.0448055
MG,SÃO BENTO ABADE,-21.5816076,-45.0759227
MG,SÃO BRÁS DO SUAÇUÍ,-20.625,-43.948889
MG,SÃO DOMINGOS DAS DORES,-19.5281943,-42.0132239
MG,SÃO DOMINGOS DO PRATA,-19.8671078,-42.9658318
MG,SÃO FRANCISCO,-15.948889,-44.864444
MG,SÃO FRANCISCO DE PAULA,-20.7098288,-44.9817485
MG,SÃO FRANCISCO DE SALES,-19.863056,-49.773889
MG,SÃO FRANCISCO DO GLÓRIA,-20.790069,-42.2679636
MG,SÃO FÉLIX DE MINAS,-18.5910792,-41.4863145
MG,SÃO GERALDO,-20.9221894,-42.8343489
MG,SÃO GERALDO DA PIEDADE,-18.8449508,-42.2886336
MG,SÃO GERALDO DO BAIXIO,-18.9167012,-41.3613816
MG,SÃO GONÇALO DO ABAETÉ,-18.3420302,-45.834112
MG,SÃO GONÇALO DO PARÁ,-19.982778,-44.859167
MG,SÃO GONÇALO DO RIO ABAIXO,-19.8252042,-43.362126
MG,SÃO GONÇALO DO RIO PRETO,-18.0042852,-43.3811575
MG,SÃO GONÇALO DO SAPUCAÍ,-21.8905238,-45.5935943
MG,SÃO GOTARDO,-19.3168844,-46.0476596
MG,SÃO JOAQUIM DE BICAS,-20.0489052,-44.2731691
MG,SÃO JOSÉ DA BARRA,-20.7180697,-46.3125073
MG,SÃO JOSÉ DA LAPA,-19.6988548,-43.9583194
MG,SÃO JOSÉ DA SAFIRA,-18.324167,-42.143333
MG,SÃO JOSÉ DA VARGINHA,-19.7087286,-44.5577812
MG,SÃO JOSÉ DO ALEGRE,-22.330449,-45.5284585
MG,SÃO JOSÉ DO DIVINO,-18.4794444,-41.3885671
MG,SÃO JOSÉ DO GOIABAL,-19.925098,-42.7083162
MG,SÃO JOSÉ DO JACURI,-18.2773091,-42.6714372
MG,SÃO JOSÉ DO MANTIMENTO,-20.003958,-41.7458061
MG,SÃO JOÃO BATISTA DO GLÓRIA,-20.6413912,-46.5052866
MG,SÃO JOÃO DA LAGOA,-16.851502,-44.3460615
MG,SÃO JOÃO DA MATA,-21.9311736,-45.9287155
MG,SÃO JOÃO DA PONTE,-15.9283299,-44.0078035
MG,SÃO JOÃO DAS MISSÕES,-14.8808771,-44.0829518
MG,SÃO JOÃO DEL REI,-21.1335755,-44.2588086
MG,SÃO JOÃO DO MANHUAÇU,-20.3938555,-42.1499705
MG,SÃO JOÃO DO MANTENINHA,-18.7229295,-41.1615277
MG,SÃO JOÃO DO ORIENTE,-19.3408771,-42.1550791
MG,SÃO JOÃO DO PACUÍ,-16.5374481,-44.5309375
MG,SÃO JOÃO DO PARAÍSO,-15.3171214,-42.01678
MG,SÃO JOÃO EVANGELISTA,-18.548023,-42.7652888
MG,SÃO JOÃO NEPOMUCENO,-21.5359158,-43.0151428
MG,SÃO LOURENÇO,-22.116389,-45.054167
MG,SÃO MIGUEL DO ANTA,-20.7065375,-42.7195395
MG,SÃO PEDRO DA UNIÃO,-21.1316402,-46.6175338
MG,SÃO PEDRO DO SUAÇUÍ,-18.365556,-42.602778
MG,SÃO PEDRO DOS FERROS,-20.1706687,-42.522901
MG,SÃO ROMÃO,-16.3687716,-45.0678597
MG,SÃO ROQUE DE MINAS,-20.245277,-46.365833
MG,SÃO SEBASTIÃO DA BELA VISTA,-22.159167,-45.754167
MG,SÃO SEBASTIÃO DA VARGEM ALEGRE,-21.0716128,-42.6371378
MG,SÃO SEBASTIÃO DO ANTA,-19.4972592,-41.983428
MG,SÃO SEBASTIÃO DO MARANHÃO,-18.0874457,-42.569608
MG,SÃO SEBASTIÃO DO OESTE,-20.274723,-45.003611
MG,SÃO SEBASTIÃO DO PARAÍSO,-20.9124331,-46.9823296
MG,SÃO SEBASTIÃO DO RIO PRETO,-19.2923414,-43.1758535
MG,SÃO SEBASTIÃO DO RIO VERDE,-22.2174751,-44.9783312
MG,SÃO THOMÉ DAS LETRAS,-21.7218272,-44.9849435
MG,SÃO TIAGO,-20.913056,-44.509167
MG,SÃO TOMÁS DE AQUINO,-20.7844139,-47.097717
MG,SÃO VICENTE DE MINAS,-21.703333,-44.443889
MG,TABULEIRO,-21.3592212,-43.2479134
MG,TAIOBEIRAS,-15.8080842,-42.2270207
MG,TAPARUBA,-19.7621023,-41.614796
MG,TAPIRA,-19.9225,-46.823056
MG,TAPIRAÍ,-19.8882788,-46.0202739
MG,TAQUARAÇU DE MINAS,-19.669445,-43.687777
MG,TARUMIRIM,-19.2818607,-42.0070412
MG,TEIXEIRAS,-20.6517875,-42.8563275
MG,TEÓFILO OTONI,-17.8579267,-41.5081533
MG,TIMÓTEO,-19.5771395,-42.6436108
MG,TIRADENTES,-21.1104688,-44.1742937
MG,TIROS,-19.003889,-45.963611
MG,TOCANTINS,-21.1738872,-43.0207206
MG,TOCOS DO MOJI,-22.3706152,-46.0964763
MG,TOLEDO,-22.7433969,-46.3735044
MG,TOMBOS,-20.9105042,-42.0260716
MG,TRÊS CORAÇÕES,-21.695625,-45.2543675
MG,TRÊS MARIAS,-18.204795,-45.247289
MG,TRÊS PONTAS,-21.3686224,-45.5122937
MG,TUMIRITINGA,-18.976946,-41.645851
MG,TUPACIGUARA,-18.5932122,-48.6999014
MG,TURMALINA,-17.286102,-42.7312574
MG,TURVOLÂNDIA,-21.875556,-45.786944
MG,UBAPORANGA,-19.6344637,-42.1073048
MG,UBAÍ,-16.2925001,-44.7823835
MG,UBERABA,-19.750833,-47.936666
MG,UBERLÂNDIA,-18.9188041,-48.2767837
MG,UBÁ,-21.12,-42.942777
MG,UMBURATIBA,-17.2548062,-40.5708064
MG,UNAÍ,-16.3628767,-46.892413
MG,UNIÃO DE MINAS,-19.5296289,-50.3317301
MG,URUANA DE MINAS,-16.0628,-46.2556
MG,URUCUIA,-16.1266994,-45.7393046
MG,URUCÂNIA,-20.350833,-42.739444
MG,VARGEM ALEGRE,-19.6070413,-42.2997922
MG,VARGEM BONITA,-20.3282116,-46.3668419
MG,VARGEM GRANDE DO RIO PARDO,-15.4027415,-42.311441
MG,VARGINHA,-21.5565914,-45.4340674
MG,VARJÃO DE MINAS,-18.3791473,-46.030627
MG,VARZELÂNDIA,-15.701667,-44.027223
MG,VAZANTE,-17.9896107,-46.9003899
MG,VERDELÂNDIA,-15.5926259,-43.6084698
MG,VEREDINHA,-17.3945837,-42.7383934
MG,VERMELHO NOVO,-20.0356065,-42.2671476
MG,VERÍSSIMO,-19.6680818,-48.308771
MG,VESPASIANO,-19.6940958,-43.9186521
MG,VIEIRAS,-20.8651165,-42.2448518
MG,VIRGEM DA LAPA,-16.8071554,-42.3376458
MG,VIRGINÓPOLIS,-18.8226124,-42.7053967
MG,VIRGOLÂNDIA,-18.4759665,-42.308628
MG,VIRGÍNIA,-22.333333,-45.091666
MG,VISCONDE DO RIO BRANCO,-21.01,-42.840833
MG,VIÇOSA,-20.7538586,-42.8815888
MG,VOLTA GRANDE,-21.770834,-42.539166
MG,VÁRZEA DA PALMA,-17.5983328,-44.7317086
MG,WENCESLAU BRAZ,-22.5342367,-45.3614735
MG,ÁGUA BOA,-17.9968063,-42.3904573
MG,ÁGUA COMPRIDA,-20.0574733,-48.1093074
MG,ÁGUAS FORMOSAS,-17.083056,-40.935555
MG,ÁGUAS VERMELHAS,-15.7469091,-41.4601975
MS,ALCINÓPOLIS,-18.3264121,-53.7094463
MS,AMAMBAI,-23.1082701,-55.2284854
MS,ANASTÁCIO,-20.4832458,-55.8048448
MS,ANAURILÂNDIA,-22.185169,-52.719056
MS,ANGÉLICA,-22.1588196,-53.7728504
MS,ANTÔNIO JOÃO,-22.1892837,-55.9508227
MS,APARECIDA DO TABOADO,-20.0840304,-51.1013943
MS,AQUIDAUANA,-20.473969,-55.7821375
MS,ARAL MOREIRA,-22.951141,-55.6268421
MS,BANDEIRANTES,-19.9179623,-54.3646768
MS,BATAGUASSU,-21.715899,-52.422058
MS,BATAYPORÃ,-22.2976466,-53.2685608
MS,BELA VISTA,-22.107327,-56.5317344
MS,BODOQUENA,-20.5508775,-56.6769653
MS,BONITO,-21.1264766,-56.4902208
MS,BRASILÂNDIA,-21.255575,-52.0365617
MS,CAARAPÓ,-22.6349267,-54.8240903
MS,CAMAPUÃ,-19.5291747,-54.0434641
MS,CAMPO GRANDE,-20.4640173,-54.6162947
MS,CARACOL,-22.0169949,-57.0298349
MS,CASSILÂNDIA,-19.1128242,-51.7345354
MS,CHAPADÃO DO SUL,-18.7949051,-52.6199512
MS,CORGUINHO,-19.827429,-54.8322243
MS,CORONEL SAPUCAIA,-23.27186,-55.5288174
MS,CORUMBÁ,-19.0016365,-57.6534316
MS,COSTA RICA,-18.5333859,-53.1394286
MS,COXIM,-18.504915,-54.7450251
MS,DEODÁPOLIS,-22.276272,-54.168163
MS,DOIS IRMÃOS DO BURITI,-20.6906107,-55.2760274
MS,DOURADINA,-22.0402812,-54.6118292
MS,DOURADOS,-22.2206145,-54.812208
MS,ELDORADO,-23.7838809,-54.2832024
MS,FIGUEIRÃO,-18.67821,-53.6379864
MS,FÁTIMA DO SUL,-22.3750499,-54.516698
MS,GLÓRIA DE DOURADOS,-22.4173731,-54.2313391
MS,GUIA LOPES DA LAGUNA,-21.5375346,-55.96134153440401
MS,IGUATEMI,-23.673555,-54.563731
MS,INOCÊNCIA,-19.7310751,-51.9307502
MS,ITAPORÃ,-22.0799142,-54.7874239
MS,ITAQUIRAÍ,-23.4801914,-54.1833692
MS,IVINHEMA,-22.302254,-53.8276006
MS,JAPORÃ,-23.8919161,-54.406888
MS,JARAGUARI,-20.1019755,-54.4377423
MS,JARDIM,-21.479941,-56.148902
MS,JATEÍ,-22.4815624,-54.307006
MS,JUTI,-22.8611994,-54.604793
MS,LADÁRIO,-19.0036585,-57.6028285
MS,LAGUNA CARAPÃ,-22.5549233,-55.1505549
MS,MARACAJU,-21.6163005,-55.164605
MS,MIRANDA,-20.2401082,-56.3844728
MS,MUNDO NOVO,-23.9378876,-54.2859489
MS,NAVIRAÍ,-23.0622152,-54.2018319
MS,NIOAQUE,-21.1605528,-55.8283423
MS,NOVA ALVORADA DO SUL,-21.4587274,-54.3760634
MS,NOVA ANDRADINA,-22.2477565,-53.3480621
MS,NOVO HORIZONTE DO SUL,-22.6546565,-53.857078
MS,PARANAÍBA,-19.6751971,-51.1874986
MS,PARANHOS,-23.8927851,-55.4287213
MS,PARAÍSO DAS ÁGUAS,-19.0219279,-53.0122646
MS,PEDRO GOMES,-18.0990797,-54.550579
MS,PONTA PORÃ,-22.5286917,-55.723426
MS,PORTO MURTINHO,-21.698078,-57.883586
MS,RIBAS DO RIO PARDO,-20.4477984,-53.7609001
MS,RIO BRILHANTE,-21.8046467,-54.5433047
MS,RIO NEGRO,-19.4466984,-54.9860433
MS,RIO VERDE DE MATO GROSSO,-18.9169208,-54.8410727
MS,ROCHEDO,-19.956488,-54.884769
MS,SANTA RITA DO PARDO,-21.3025544,-52.8262142
MS,SELVÍRIA,-20.3616393,-51.4251863
MS,SETE QUEDAS,-23.978822,-55.0428349
MS,SIDROLÂNDIA,-20.9361042,-54.9640262
MS,SONORA,-17.5852028,-54.7548288
MS,SÃO GABRIEL DO OESTE,-19.3944843,-54.5755213
MS,TACURU,-23.635954,-55.014137
MS,TAQUARUSSU,-22.4870022,-53.3524041
MS,TERENOS,-20.4409259,-54.8656049
MS,TRÊS LAGOAS,-20.7866799,-51.7061247
MS,VICENTINA,-22.4093447,-54.4370921
MS,ÁGUA CLARA,-20.4385757,-52.8797496
MT,ACORIZAL,-15.2001544,-56.3668953
MT,ALTA FLORESTA,-9.8698547,-56.0834993
MT,ALTO ARAGUAIA,-17.3156528,-53.2169365
MT,ALTO BOA VISTA,-11.6723985,-51.3744431
MT,ALTO GARÇAS,-16.9469683,-53.529427
MT,ALTO PARAGUAI,-14.513712,-56.4936374
MT,ALTO TAQUARI,-17.8269099,-53.2831736
MT,APIACÁS,-9.5678422,-57.394852
MT,ARAGUAIANA,-15.729144,-51.834112
MT,ARAGUAINHA,-16.857016,-53.031778
MT,ARAPUTANGA,-15.4710868,-58.346796
MT,ARENÁPOLIS,-14.460185,-56.8436668
MT,ARIPUANÃ,-10.175806,-59.4439663
MT,BARRA DO BUGRES,-15.0683712,-57.1853688
MT,BARRA DO GARÇAS,-15.8916033,-52.2615413
MT,BARÃO DE MELGAÇO,-16.195776,-55.9668049
MT,BOM JESUS DO ARAGUAIA,-12.1725897,-51.5074425
MT,BRASNORTE,-12.1218837,-58.0042714
MT,CAMPINÁPOLIS,-14.5403731,-52.7970626
MT,CAMPO NOVO DO PARECIS,-13.658735,-57.890723
MT,CAMPO VERDE,-15.5430787,-55.1590511
MT,CAMPOS DE JÚLIO,-13.7223646,-59.2645296
MT,CANABRAVA DO NORTE,-11.0516481,-51.8301897
MT,CANARANA,-13.5564602,-52.2691167
MT,CARLINDA,-9.9690671,-55.8200191
MT,CASTANHEIRA,-11.1391946,-58.6088547
MT,CHAPADA DOS GUIMARÃES,-15.464343,-55.749857
MT,CLÁUDIA,-11.5057202,-54.8763166
MT,COCALINHO,-14.390339,-51.00015
MT,COLNIZA,-9.4560637,-59.2197132
MT,COLÍDER,-10.8094999,-55.4540386
MT,COMODORO,-13.6581107,-59.786883
MT,CONFRESA,-10.643695,-51.569873
MT,CONQUISTA D'OESTE,-14.5381171,-59.5443775
MT,COTRIGUAÇU,-9.9034364,-58.5658915
MT,CUIABÁ,-15.5986686,-56.0991301
MT,CURVELÂNDIA,-15.6108629,-57.9188924
MT,CÁCERES,-16.0644315,-57.6879744
MT,DENISE,-14.7292165,-57.0482981
MT,DIAMANTINO,-14.4036262,-56.4364488
MT,DOM AQUINO,-15.809899,-54.922298
MT,FELIZ NATAL,-12.3802463,-54.9389793
MT,FIGUEIRÓPOLIS D'OESTE,-15.443918,-58.739149
MT,GAÚCHA DO NORTE,-13.18136,-53.2543946
MT,GENERAL CARNEIRO,-15.7070922,-52.7606044
MT,GLÓRIA D'OESTE,-15.7680093,-58.3107593
MT,GUARANTÃ DO NORTE,-9.9517992,-54.9098178
MT,GUIRATINGA,-16.3457422,-53.7595097
MT,INDIAVAÍ,-15.4941405,-58.5765917
MT,IPIRANGA DO NORTE,-12.2408004,-56.1531011
MT,ITANHANGÁ,-12.2323038,-56.6418251
MT,ITAÚBA,-11.0084948,-55.2480739
MT,ITIQUIRA,-17.2033274,-54.1446924
MT,JACIARA,-15.9520115,-54.9762106
MT,JANGADA,-15.2369949,-56.4902844
MT,JAURU,-15.3407762,-58.8683137
MT,JUARA,-11.2535587,-57.5080072
MT,JURUENA,-10.3282716,-58.4968918
MT,JUSCIMEIRA,-16.0517819,-54.8893514
MT,JUÍNA,-11.4230908,-58.7570212
MT,LAMBARI D'OESTE,-15.3188455,-58.0046244
MT,LUCAS DO RIO VERDE,-13.0664609,-55.9196711
MT,LUCIARA,-11.2234472,-50.6680221
MT,MARCELÂNDIA,-11.0794264,-54.5202451
MT,MATUPÁ,-10.1683242,-54.9346194
MT,MIRASSOL D'OESTE,-15.675947,-58.0951397
MT,NOBRES,-14.7196233,-56.3351314
MT,NORTELÂNDIA,-14.4518972,-56.8043752
MT,NOSSA SENHORA DO LIVRAMENTO,-15.7725185,-56.3442904
MT,NOVA BANDEIRANTES,-9.8494172,-57.8139698
MT,NOVA BRASILÂNDIA,-14.9298622,-54.973665
MT,NOVA CANAÃ DO NORTE,-10.6367877,-55.709177
MT,NOVA GUARITA,-10.3102031,-55.4042689
MT,NOVA LACERDA,-14.4753855,-59.5881498
MT,NOVA MARILÂNDIA,-14.3653436,-56.9709009
MT,NOVA MARINGÁ,-13.0314433,-57.0922657
MT,NOVA MONTE VERDE,-9.9796694,-57.467331
MT,NOVA MUTUM,-13.8255015,-56.0849262
MT,NOVA NAZARÉ,-13.9897745,-51.7998937
MT,NOVA OLÍMPIA,-14.7764648,-57.281316
MT,NOVA SANTA HELENA,-10.8495357,-55.1780435
MT,NOVA UBIRATÃ,-13.03484,-55.2539048
MT,NOVA XAVANTINA,-14.6794165,-52.351994
MT,NOVO HORIZONTE DO NORTE,-11.3904019,-57.3159067
MT,NOVO MUNDO,-9.9752901,-55.1779717
MT,NOVO SANTO ANTÔNIO,-12.2909756,-50.97048
MT,NOVO SÃO JOAQUIM,-14.9108231,-53.01775
MT,PARANATINGA,-14.4297856,-54.0503432
MT,PARANAÍTA,-9.6655602,-56.4758122
MT,PEDRA PRETA,-16.6230015,-54.4761228
MT,PEIXOTO DE AZEVEDO,-10.2429203,-54.9919857
MT,PLANALTO DA SERRA,-14.6627994,-54.7756232
MT,POCONÉ,-16.2634094,-56.6229717
MT,PONTAL DO ARAGUAIA,-15.9045099,-52.257365
MT,PONTE BRANCA,-16.758407,-52.836864
MT,PONTES E LACERDA,-15.2315171,-59.3349512
MT,PORTO ALEGRE DO NORTE,-10.8792851,-51.6391975
MT,PORTO DOS GAÚCHOS,-11.532999,-57.413233
MT,PORTO ESPERIDIÃO,-15.8521665,-58.4693093
MT,PORTO ESTRELA,-15.3331148,-57.2080992
MT,POXORÉU,-15.8290891,-54.3925375
MT,PRIMAVERA DO LESTE,-15.5614127,-54.2993946
MT,QUERÊNCIA,-12.5944625,-52.2088505
MT,RESERVA DO CABAÇAL,-15.1211207,-58.3836183
MT,RIBEIRÃO CASCALHEIRA,-12.936738,-51.824421
MT,RIBEIRÃOZINHO,-16.489765,-52.6942009
MT,RIO BRANCO,-15.2398109,-58.1160774
MT,RONDOLÂNDIA,-10.8428772,-61.4596962
MT,RONDONÓPOLIS,-16.4603533,-54.6397099
MT,ROSÁRIO OESTE,-14.825938,-56.42357
MT,SALTO DO CÉU,-15.1295662,-58.1298908
MT,SANTA CARMEM,-11.9745614,-55.2788045
MT,SANTA CRUZ DO XINGU,-10.1533447,-52.392016
MT,SANTA RITA DO TRIVELATO,-13.8139517,-55.2721092
MT,SANTA TEREZINHA,-10.470375,-50.513986
MT,SANTO AFONSO,-14.4960696,-57.0045096
MT,SANTO ANTÔNIO DO LESTE,-14.8037659,-53.6095671
MT,SANTO ANTÔNIO DO LEVERGER,-15.84980135,-56.08614356248529
MT,SAPEZAL,-13.547958,-58.8146235
MT,SERRA NOVA DOURADA,-12.0890348,-51.4005672
MT,SINOP,-11.8508224,-55.5175957
MT,SORRISO,-12.5444887,-55.7233972
MT,SÃO FÉLIX DO ARAGUAIA,-11.6170646,-50.6667246
MT,SÃO JOSÉ DO POVO,-16.4647805,-54.2539044
MT,SÃO JOSÉ DO RIO CLARO,-13.4467103,-56.7214365
MT,SÃO JOSÉ DO XINGU,-10.803888,-52.7357819
MT,SÃO JOSÉ DOS QUATRO MARCOS,-15.627584,-58.177217
MT,SÃO PEDRO DA CIPA,-16.0030443,-54.9212312
MT,TABAPORÃ,-11.3085286,-56.8212723
MT,TANGARÁ DA SERRA,-14.6213903,-57.4907268
MT,TAPURAH,-12.742385,-56.512037
MT,TERRA NOVA DO NORTE,-10.5995196,-55.1167029
MT,TESOURO,-16.0802073,-53.553114
MT,TORIXORÉU,-16.200591,-52.557097
MT,UNIÃO DO SUL,-11.5308712,-54.3695643
MT,VALE DE SÃO DOMINGOS,-15.2966987,-59.065637
MT,VERA,-12.2949604,-55.2947571
MT,VILA BELA DA SANTÍSSIMA TRINDADE,-15.009904,-59.961115
MT,VILA RICA,-10.013666,-51.118599
MT,VÁRZEA GRANDE,-15.645816,-56.132218
MT,ÁGUA BOA,-14.0522968,-52.1617625
PA,ABAETETUBA,-1.721828,-48.878843
PA,ABEL FIGUEIREDO,-4.953001,-48.3958485
PA,ACARÁ,-1.961388,-48.1987043
PA,AFUÁ,-0.1535664,-50.3879223
PA,ALENQUER,-1.946229,-54.738355
PA,ALMEIRIM,-1.5290377,-52.5788111
PA,ALTAMIRA,-3.204065,-52.209961
PA,ANAJÁS,-0.9878802,-49.9390114
PA,ANANINDEUA,-1.374035,-48.4016623
PA,ANAPU,-3.4668292,-51.2057035
PA,AUGUSTO CORRÊA,-1.0229335,-46.6404029
PA,AURORA DO PARÁ,-2.1323199,-47.558436
PA,AVEIRO,-3.6029015,-55.328079
PA,BAGRE,-1.8994498,-50.2103844
PA,BAIÃO,-2.7903479,-49.6702845
PA,BANNACH,-7.3508505,-50.4064531
PA,BARCARENA,-1.5107945,-48.6190679
PA,BELTERRA,-2.636091,-54.937392
PA,BELÉM,-1.45056,-48.4682453
PA,BENEVIDES,-1.3555577,-48.252235
PA,BOM JESUS DO TOCANTINS,-5.0471796,-48.5978362
PA,BONITO,-1.3605722,-47.3049907
PA,BRAGANÇA,-0.9892329,-46.783178998153524
PA,BRASIL NOVO,-3.3055853,-52.539198
PA,BREJO GRANDE DO ARAGUAIA,-5.7011449,-48.4037308
PA,BREU BRANCO,-3.7785073,-49.5684795
PA,BREVES,-1.68036,-50.479085
PA,BUJARU,-1.5169239,-48.0410699
PA,CACHOEIRA DO ARARI,-1.0143572,-48.9621089
PA,CACHOEIRA DO PIRIÁ,-1.7599443,-46.5446954
PA,CAMETÁ,-2.242949,-49.497885
PA,CANAÃ DOS CARAJÁS,-6.5296837,-49.8516592
PA,CAPANEMA,-25.6704878,-53.8083036
PA,CAPITÃO POÇO,-1.7447162,-47.0638495
PA,CASTANHAL,-1.2927031,-47.9223903
PA,CHAVES,-0.164154,-49.987006
PA,COLARES,-0.936423,-48.280254
PA,CONCEIÇÃO DO ARAGUAIA,-8.2696905,-49.2676864
PA,CONCÓRDIA DO PARÁ,-1.9924056,-47.9450474
PA,CUMARU DO NORTE,-7.8122669,-50.7677675
PA,CURIONÓPOLIS,-6.0990443,-49.6059039
PA,CURRALINHO,-1.8137876,-49.7980165
PA,CURUÁ,-1.887754,-55.116842
PA,CURUÇÁ,-0.7276792,-47.856568
PA,DOM ELISEU,-4.2928111,-47.5559083
PA,ELDORADO DOS CARAJÁS,-6.117130899999999,-49.258271273759696
PA,FARO,-1.1091625500000002,-57.800250715708856
PA,FLORESTA DO ARAGUAIA,-7.5597065,-49.7032829
PA,GARRAFÃO DO NORTE,-1.9282256,-47.0513157
PA,GOIANÉSIA DO PARÁ,-3.8380998,-49.0977992
PA,GURUPÁ,-1.406325,-51.6427456
PA,IGARAPÉ-AÇU,-1.128244,-47.6199021
PA,IGARAPÉ-MIRI,-1.9785213,-48.9634826
PA,INHANGAPI,-1.4283738,-47.9108608
PA,IPIXUNA DO PARÁ,-2.5592139,-47.4965462
PA,IRITUIA,-1.7709543,-47.4399687
PA,ITAITUBA,-4.2625218,-55.9878139
PA,ITUPIRANGA,-5.1337224,-49.3321988
PA,JACAREACANGA,-6.2196518,-57.758625
PA,JACUNDÁ,-4.446173,-49.115272
PA,JURUTI,-2.1571381,-56.0900977
PA,LIMOEIRO DO AJURU,-1.8866440500000001,-49.495701348909165
PA,MAGALHÃES BARATA,-0.8346168,-47.62963129677816
PA,MARABÁ,-5.3462821,-49.1007401
PA,MARACANÃ,-0.7666582,-47.4537818
PA,MARAPANIM,-0.7134493,-47.6985381
PA,MARITUBA,-1.3595306,-48.3361504
PA,MEDICILÂNDIA,-3.4438388,-52.8889236
PA,MELGAÇO,-1.803202,-50.714927
PA,MOCAJUBA,-2.583098,-49.504224
PA,MOJU,-1.889926,-48.766765
PA,MOJUÍ DOS CAMPOS,-2.682167,-54.642717
PA,MONTE ALEGRE,-1.9989108,-54.0727694
PA,MUANÁ,-1.5317443,-49.2223565
PA,MÃE DO RIO,-2.0458692,-47.5522076
PA,NOVA ESPERANÇA DO PIRIÁ,-2.2663093,-46.9661622
PA,NOVA IPIXUNA,-4.916221,-49.082194
PA,NOVA TIMBOTEUA,-1.2052428,-47.3935775
PA,NOVO PROGRESSO,-7.0374884,-55.4185904
PA,NOVO REPARTIMENTO,-4.2519172,-49.9524257
PA,OEIRAS DO PARÁ,-2.0040813,-49.8596065
PA,ORIXIMINÁ,-1.7669992,-55.868285
PA,OURILÂNDIA DO NORTE,-6.748975,-51.0788476
PA,OURÉM,-1.5489964,-47.1174572
PA,PACAJÁ,-3.8354195,-50.6399248
PA,PALESTINA DO PARÁ,-5.7423938,-48.3185533
PA,PARAGOMINAS,-2.99564,-47.3548942
PA,PARAUAPEBAS,-6.0696846,-49.8903283
PA,PAU D'ARCO,-7.8331153,-50.0404438
PA,PEIXE-BOI,-1.193824,-47.324031
PA,PIÇARRA,-6.4475822,-48.8633795
PA,PLACAS,-3.8689529,-54.2154346
PA,PONTA DE PEDRAS,-1.3914098,-48.8714528
PA,PORTEL,-1.9387118,-50.8240402
PA,PORTO DE MOZ,-1.7502089,-52.235556
PA,PRAINHA,-1.8072874,-53.4797942
PA,PRIMAVERA,-0.9406522,-47.116728
PA,QUATIPURU,-0.8948725,-47.0049317
PA,REDENÇÃO,-8.025294,-50.031687
PA,RIO MARIA,-7.3137312,-50.0465372
PA,RONDON DO PARÁ,-4.7804416,-48.06983
PA,RURÓPOLIS,-4.1014311,-54.9086853
